     2.10           OBSERVATION DATA    M (MIXED)           RINEX VERSION / TYPE
RTKCONV 2.4.3 b33                       20210118 024103 UTC PGM / RUN BY / DATE 
log: E:\UofC\Winter 2021\data.21O                           COMMENT             
format: RINEX                                               COMMENT             
CREF0001                                                    MARKER NAME         
                                                            MARKER NUMBER       
                                                            OBSERVER / AGENCY   
5331K44824          Trimble NetR9       5.03                REC # / TYPE / VERS 
0000000000          Unknown External                        ANT # / TYPE        
 -1641890.0812 -3664879.3462  4939969.4303                  APPROX POSITION XYZ 
        0.0000        0.0000        0.0000                  ANTENNA: DELTA H/E/N
     1     1                                                WAVELENGTH FACT L1/2
     4    C1    L1    C2    L2                              # / TYPES OF OBSERV 
  2021     1     7    23     0    0.0000000     GPS         TIME OF FIRST OBS   
  2021     1     7    23    59   59.0000000     GPS         TIME OF LAST OBS    
                                                            END OF HEADER       
 21  1  7 23  0  0.0000000  0  9G30G 8G28G 5G 9G27G 7G13G14
  20734768.320   108962052.765    20734776.668    84905492.644  
  21393423.328   112423209.857    21393431.379    87602588.973  
  22468699.750   118073846.229                                  
  23865508.500   125413956.788    23865515.316    97725301.554  
  23128303.109   121539963.322    23128310.996    94706600.090  
  22913754.797   120412581.051    22913762.508    93828073.420  
  20468139.273   107560872.078    20468144.402    83813695.684  
  23581932.008   123923946.415                                  
  22062689.398   115940486.253    22062695.734    90343089.393  
 21  1  7 23  0  1.0000000  0  9G30G 8G28G 5G 9G27G 7G13G14
  20734501.813   108960652.113    20734509.898    84904401.229  
  21393404.094   112423107.549    21393411.953    87602509.249  
  22468176.906   118071098.164                                  
  23865812.320   125415559.834    23865819.957    97726550.679  
  23128988.031   121543562.507    23128995.918    94709404.651  
  22914202.336   120414926.037    22914209.051    93829900.680  
  20468231.508   107561355.559    20468236.816    83814072.421  
  23581302.688   123920641.165                                  
  22062149.773   115937647.029    22062155.066    90340877.016  
 21  1  7 23  0  2.0000000  0  9G30G 8G28G 5G 9G27G 7G13G14
  20734235.453   108959251.849    20734243.563    84903310.112  
  21393384.578   112423005.920    21393392.988    87602430.061  
  22467653.641   118068350.338                                  
  23866117.844   125417163.404    23866124.816    97727800.209  
  23129672.945   121547161.940    23129680.359    94712209.403  
  22914647.477   120417271.586    22914655.145    93831728.378  
  20468323.086   107561839.450    20468328.934    83814449.485  
  23580673.594   123917336.205                                  
  22061609.172   115934808.136    22061614.797    90338664.888  
 21  1  7 23  0  3.0000000  0  9G30G 8G28G 5G 9G27G 7G13G14
  20733969.266   108957851.964    20733977.078    84902219.288  
  21393365.031   112422905.026    21393373.668    87602351.442  
  22467130.953   118065602.843                                  
  23866424.734   125418767.522    23866429.496    97729050.167  
  23130357.828   121550761.579    23130365.465    94715014.317  
  22915094.813   120419617.678    22915101.543    93833556.503  
  20468415.578   107562323.758    20468420.758    83814826.865  
  23580044.969   123914031.535                                  
  22061068.969   115931969.545    22061074.648    90336452.999  
 21  1  7 23  0  4.0000000  0  9G30G 8G28G 5G 9G27G 7G13G14
  20733702.727   108956452.458    20733710.625    84901128.771  
  21393346.547   112422804.825    21393354.391    87602273.367  
  22466607.891   118062855.652                                  
  23866731.242   125420372.122    23866735.492    97730300.502  
  23131043.102   121554361.464    23131050.441    94717819.416  
  22915540.211   120421964.337    22915547.547    93835385.069  
  20468507.727   107562808.466    20468512.977    83815204.559  
  23579416.211   123910727.124                                  
  22060528.555   115929131.306    22060534.770    90334241.381  
 21  1  7 23  0  5.0000000  0  9G30G 8G28G 5G 9G27G 7G13G14
  20733436.461   108955053.341    20733444.230    84900038.548  
  21393327.500   112422705.348    21393335.449    87602195.854  
  22466084.883   118060108.762                                  
  23867036.063   125421977.250    23867041.422    97731551.259  
  23131728.344   121557961.623    23131735.809    94720624.732  
  22915987.555   120424311.567    22915995.105    93837214.077  
  20468600.203   107563293.609    20468605.609    83815582.592  
  23578787.523   123907422.995                                  
  22059988.656   115926293.393    22059994.738    90332030.019  
 21  1  7 23  0  6.0000000  0  9G30G 8G28G 5G 9G27G 7G13G14
  20733170.164   108953654.613    20733178.324    84898948.632  
  21393308.453   112422606.559    21393316.828    87602118.875  
  22465562.500   118057362.192                                  
  23867341.164   125423582.960    23867346.773    97732802.466  
  23132413.656   121561562.014    23132420.527    94723430.237  
  22916434.211   120426659.347    22916441.992    93839043.513  
  20468692.484   107563779.176    20468697.633    83815960.955  
  23578158.930   123904119.147                                  
  22059448.172   115923455.821    22059454.832    90329818.931  
 21  1  7 23  0  7.0000000  0  9G30G 8G28G 5G 9G27G 7G13G14
  20732904.078   108952256.300    20732911.895    84897859.037  
  21393290.258   112422508.580    21393298.176    87602042.527  
  22465039.914   118054615.954                                  
  23867644.633   125425189.220    23867652.848    97734054.104  
  23133098.648   121565162.681    23133105.895    94726235.952  
  22916880.742   120429007.755    22916889.059    93840873.445  
  20468785.352   107564265.205    20468790.043    83816339.682  
  23577529.742   123900815.632                                  
  22058908.477   115920618.614    22058914.844    90327608.125  
 21  1  7 23  0  8.0000000  0  9G30G 8G28G 5G 9G27G 7G13G14
  20732638.289   108950858.350    20732646.387    84896769.728  
  21393271.430   112422411.244    21393279.645    87601966.683  
  22464517.789   118051869.992                                  
  23867950.109   125426795.990    23867958.543    97735306.129  
  23133784.023   121568763.548    23133791.727    94729041.823  
  22917328.266   120431356.700    22917335.238    93842703.790  
  20468877.797   107564751.618    20468882.465    83816718.705  
  23576901.367   123897512.363                                  
  22058368.773   115917781.717    22058374.867    90325397.557  
 21  1  7 23  0  9.0000000  0  9G30G 8G28G 5G 9G27G 7G13G14
  20732372.273   108949460.765    20732380.180    84895680.697  
  21393253.242   112422314.603    21393260.996    87601891.376  
  22463995.070   118049124.336                                  
  23868256.773   125428403.242    23868264.063    97736558.520  
  23134468.656   121572364.671    23134476.492    94731847.891  
  22917775.211   120433706.159    22917782.559    93844534.537  
  20468970.539   107565238.449    20468975.340    83817098.049  
  23576272.430   123894209.341                                  
  22057828.844   115914945.133    22057834.461    90323187.235  
 21  1  7 23  0 10.0000000  0  9G30G 8G28G 5G 9G27G 7G13G14
  20732106.320   108948063.619    20732114.590    84894592.010  
  21393234.523   112422218.707    21393242.555    87601816.651  
  22463472.984   118046379.034                                  
  23868565.094   125430011.116    23868570.063    97737811.407  
  23135154.016   121575966.065    23135161.273    94734654.173  
  22918222.461   120436056.240    22918229.766    93846365.769  
  20469063.023   107565725.719    20469068.113    83817477.743  
  23575643.859   123890906.681                                  
  22057289.484   115912108.914    22057295.457    90320977.189  
 21  1  7 23  0 11.0000000  0  9G30G 8G28G 5G 9G27G 7G13G14
  20731840.508   108946666.784    20731848.715    84893503.569  
  21393216.539   112422123.502    21393224.836    87601742.464  
  22462950.547   118043633.982                                  
  23868871.695   125431619.441    23868875.773    97739064.647  
  23135839.703   121579567.677    23135847.203    94737460.621  
  22918669.805   120438406.849    22918676.797    93848197.416  
  20469155.688   107566213.374    20469161.367    83817857.731  
  23575015.859   123887604.233                                  
  22056749.508   115909273.013    22056755.691    90318767.398  
 21  1  7 23  0 12.0000000  0  9G30G 8G28G 5G 9G27G 7G13G14
  20731575.297   108945270.434    20731582.750    84892415.506  
  21393198.625   112422029.057    21393206.789    87601668.871  
  22462427.883   118040889.318                                  
  23869177.227   125433228.406    23869181.941    97740318.394  
  23136525.078   121583169.555    23136532.168    94740267.280  
  22919117.195   120440758.081    22919124.430    93850029.544  
  20469248.352   107566701.516    20469254.152    83818238.103  
  23574387.328   123884302.142                                  
  22056210.297   115906437.471    22056216.242    90316557.881  
 21  1  7 23  0 13.0000000  0  9G30G 8G28G 5G 9G27G 7G13G14
  20731309.453   108943874.426    20731317.098    84891327.704  
  21393180.922   112421935.296    21393189.180    87601595.805  
  22461905.750   118038144.882                                  
  23869482.664   125434837.845    23869488.641    97741572.513  
  23137210.977   121586771.686    23137217.891    94743074.134  
  22919564.297   120443109.843    22919571.789    93851862.079  
  20469341.672   107567190.041    20469346.715    83818618.771  
  23573759.320   123881000.308                                  
  22055670.688   115903602.271    22055676.461    90314348.631  
 21  1  7 23  0 14.0000000  0  9G30G 8G28G 5G 9G27G 7G13G14
  20731043.672   108942478.856    20731051.703    84890240.248  
  21393163.375   112421842.286    21393171.637    87601523.334  
  22461383.594   118035400.823                                  
  23869787.117   125436447.887    23869794.961    97742827.098  
  23137896.641   121590374.043    23137903.535    94745881.164  
  22920012.055   120445462.211    22920019.594    93853695.093  
  20469434.641   107567679.006    20469440.391    83818999.782  
  23573130.617   123877698.783                                  
  22055131.172   115900767.411    22055137.250    90312139.653  
 21  1  7 23  0 15.0000000  0  9G30G 8G28G 5G 9G27G 7G13G14
  20730778.102   108941083.607    20730785.926    84889153.041  
  21393145.492   112421749.949    21393153.750    87601451.379  
  22460861.148   118032657.029                                  
  23870093.266   125438058.407    23870101.973    97744082.044  
  23138581.992   121593976.662    23138589.020    94748688.397  
  22920459.305   120447815.094    22920467.137    93855528.506  
  20469527.320   107568168.383    20469533.113    83819381.122  
  23572502.445   123874397.510                                  
  22054591.781   115897932.859    22054597.832    90309930.911  
 21  1  7 23  0 16.0000000  0  9G30G 8G28G 5G 9G27G 7G13G14
  20730512.758   108939688.749    20730520.781    84888066.136  
  21393128.156   112421658.330    21393136.238    87601379.986  
  22460339.688   118029913.565                                  
  23870401.641   125439669.458    23870407.953    97745337.392  
  23139267.156   121597579.514    23139274.895    94751495.818  
  22920907.344   120450168.521    22920915.141    93857362.345  
  20469620.703   107568658.156    20469626.164    83819762.756  
  23571874.633   123871096.528                                  
  22054052.531   115895098.637    22054058.043    90307722.433  
 21  1  7 23  0 17.0000000  0  9G30G 8G28G 5G 9G27G 7G13G14
  20730247.141   108938294.316    20730255.301    84886979.571  
  21393110.813   112421567.456    21393118.891    87601309.181  
  22459817.461   118027170.417                                  
  23870709.477   125441281.058    23870714.367    97746593.177  
  23139953.031   121601182.648    23139960.121    94754303.451  
  22921355.914   120452522.582    22921363.313    93859196.680  
  20469713.914   107569148.406    20469719.680    83820144.774  
  23571246.188   123867795.899                                  
  22053513.703   115892264.773    22053519.426    90305514.226  
 21  1  7 23  0 18.0000000  0  9G30G 8G28G 5G 9G27G 7G13G14
  20729982.094   108936900.276    20729989.852    84885893.300  
  21393093.938   112421477.272    21393101.430    87601238.906  
  22459295.820   118024427.573                                  
  23871017.109   125442893.229    23871021.039    97747849.413  
  23140639.016   121604785.984    23140646.313    94757111.245  
  22921804.078   120454877.160    22921811.512    93861031.413  
  20469807.852   107569639.043    20469813.000    83820527.088  
  23570618.664   123864495.475                                  
  22052974.133   115889431.257    22052979.586    90303306.299  
 21  1  7 23  0 19.0000000  0  9G30G 8G28G 5G 9G27G 7G13G14
  20729717.016   108935506.572    20729724.352    84884807.299  
  21393076.656   112421387.753    21393084.867    87601169.154  
  22458773.477   118021684.985                                  
  23871323.273   125444505.886    23871328.145    97749106.029  
  23141324.188   121608389.533    23141331.824    94759919.199  
  22922252.133   120457232.289    22922259.484    93862866.579  
  20469901.094   107570130.060    20469906.438    83820909.699  
  23569989.547   123861195.314                                  
  22052435.078   115886598.024    22052440.695    90301098.587  
 21  1  7 23  0 20.0000000  0  9G30G 8G28G 5G 9G27G 7G13G14
  20729451.477   108934113.297    20729459.570    84883721.631  
  21393059.797   112421299.015    21393068.168    87601100.005  
  22458251.625   118018942.798                                  
  23871628.203   125446119.084    23871635.332    97750363.070  
  23142010.141   121611993.393    23142017.719    94762727.402  
  22922700.086   120459588.039    22922707.656    93864702.232  
  20469994.703   107570621.552    20470000.035    83821292.676  
  23569361.922   123857895.500                                  
  22051895.438   115883765.172    22051901.766    90298891.162  
 21  1  7 23  0 21.0000000  0  9G30G 8G28G 5G 9G27G 7G13G14
  20729187.117   108932720.375    20729195.023    84882636.243  
  21393043.047   112421210.940    21393051.188    87601031.373  
  22457729.344   118016200.851                                  
  23871933.844   125447732.827    23871942.605    97751620.534  
  23142695.836   121615597.455    23142703.531    94765535.758  
  22923149.000   120461944.305    22923155.844    93866538.279  
  20470088.422   107571113.455    20470093.996    83821675.975  
  23568733.906   123854595.945                                  
  22051356.445   115880932.645    22051362.559    90296683.995  
 21  1  7 23  0 22.0000000  0  9G30G 8G28G 5G 9G27G 7G13G14
  20728921.719   108931327.886    20728929.809    84881551.185  
  21393026.469   112421123.635    21393034.266    87600963.348  
  22457208.203   118013459.267                                  
  23872241.820   125449347.099    23872249.738    97752878.404  
  23143382.102   121619201.786    23143389.250    94768344.328  
  22923597.484   120464301.166    22923604.711    93868374.794  
  20470182.000   107571605.799    20470186.828    83822059.620  
  23568105.859   123851296.701                                  
  22050817.680   115878100.465    22050823.977    90294477.103  
 21  1  7 23  0 23.0000000  0  9G30G 8G28G 5G 9G27G 7G13G14
  20728656.398   108929935.786    20728664.609    84880466.433  
  21393009.805   112421037.008    21393018.262    87600895.845  
  22456686.602   118010717.977                                  
  23872551.281   125450961.939    23872556.730    97754136.721  
  23144067.484   121622806.346    23144075.531    94771153.076  
  22924045.422   120466658.591    22924053.453    93870211.746  
  20470275.469   107572098.547    20470280.859    83822443.579  
  23567478.031   123847997.736                                  
  22050278.695   115875268.622    22050284.613    90292270.474  
 21  1  7 23  0 24.0000000  0  9G30G 8G28G 5G 9G27G 7G13G14
  20728391.688   108928544.048    20728400.234    84879381.961  
  21392993.703   112420951.125    21393001.617    87600828.926  
  22456164.883   118007976.994                                  
  23872859.820   125452577.292    23872864.117    97755395.433  
  23144754.008   121626411.178    23144761.281    94773962.042  
  22924494.867   120469016.600    22924502.008    93872049.160  
  20470369.477   107572591.723    20470374.930    83822827.877  
  23566850.734   123844699.060                                  
  22049739.758   115872437.117    22049745.680    90290064.113  
 21  1  7 23  0 25.0000000  0  9G30G 8G28G 5G 9G27G 7G13G14
  20728127.109   108927152.714    20728135.168    84878297.798  
  21392977.055   112420865.919    21392985.195    87600762.528  
  22455643.469   118005236.315                                  
  23873167.766   125454193.163    23873171.828    97756654.552  
  23145439.883   121630016.233    23145447.262    94776771.173  
  22924942.836   120471375.124    22924951.023    93873886.970  
  20470463.234   107573085.318    20470468.555    83823212.492  
  23566223.500   123841400.657                                  
  22049200.773   115869605.917    22049206.805    90287857.988  
 21  1  7 23  0 26.0000000  0  9G30G 8G28G 5G 9G27G 7G13G14
  20727862.570   108925761.768    20727870.648    84877213.944  
  21392961.383   112420781.431    21392969.125    87600696.689  
  22455122.406   118002495.957                                  
  23873474.383   125455809.587    23873479.875    97757914.110  
  23146125.953   121633621.553    23146133.254    94779580.508  
  22925392.078   120473734.255    22925399.754    93875725.253  
  20470557.352   107573579.354    20470562.848    83823597.454  
  23565596.266   123838102.553                                  
  22048662.703   115866775.100    22048668.449    90285652.158  
 21  1  7 23  0 27.0000000  0  9G30G 8G28G 5G 9G27G 7G13G14
  20727597.625   108924371.199    20727605.801    84876130.387  
  21392945.453   112420697.646    21392953.270    87600631.409  
  22454600.352   117999755.900                                  
  23873779.906   125457426.537    23873786.965    97759174.076  
  23146812.148   121637227.093    23146819.348    94782390.021  
  22925841.438   120476093.907    22925849.129    93877563.944  
  20470651.109   107574073.789    20470656.582    83823982.734  
  23564968.945   123834804.718                                  
  22048124.039   115863944.586    22048130.309    90283446.564  
 21  1  7 23  0 28.0000000  0  9G30G 8G28G 5G 9G27G 7G13G14
  20727333.109   108922981.005    20727341.129    84875047.121  
  21392930.063   112420614.582    21392937.875    87600566.681  
  22454079.156   117997016.136                                  
  23874086.453   125459043.990    23874094.641    97760434.423  
  23147498.227   121640832.866    23147505.629    94785199.711  
  22926290.406   120478454.161    22926297.918    93879403.101  
  20470745.789   107574568.638    20470750.785    83824368.327  
  23564340.242   123831507.157                                  
  22047585.391   115861114.406    22047591.406    90281241.227  
 21  1  7 23  0 29.0000000  0  9G30G 8G28G 5G 9G27G 7G13G14
  20727068.969   108921591.231    20727076.719    84873964.183  
  21392913.938   112420532.271    21392922.285    87600502.540  
  22453557.516   117994276.703                                  
  23874395.680   125460662.051    23874402.348    97761695.253  
  23148184.539   121644438.928    23148191.559    94788009.632  
  22926739.961   120480814.966    22926747.156    93881242.684  
  20470839.930   107575063.942    20470845.090    83824754.285  
  23563714.070   123828209.909                                  
  22047046.844   115858284.581    22047053.070    90279036.171  
 21  1  7 23  0 30.0000000  0  9G30G 8G28G 5G 9G27G 7G13G14
  20726804.039   108920201.832    20726812.469    84872881.533  
  21392898.344   112420450.663    21392906.750    87600438.951  
  22453036.641   117991537.586                                  
  23874706.180   125462280.607    23874710.672    97762956.460  
  23148870.820   121648045.205    23148877.656    94790819.714  
  22927188.906   120483176.326    22927196.477    93883082.708  
  20470934.523   107575559.637    20470939.563    83825140.540  
  23563086.508   123824912.953                                  
  22046508.305   115855455.088    22046514.738    90276831.373  
 21  1  7 23  0 31.0000000  0  9G30G 8G28G 5G 9G27G 7G13G14
  20726540.195   108918812.855    20726547.754    84871799.212  
  21392883.039   112420369.788    21392891.008    87600375.933  
  22452516.320   117988798.791                                  
  23875014.266   125463899.745    23875019.043    97764218.131  
  23149557.047   121651651.746    23149564.660    94793630.006  
  22927638.016   120485538.272    22927646.422    93884923.184  
  20471028.781   107576055.791    20471034.418    83825527.153  
  23562459.273   123821616.248                                  
  22045969.461   115852625.944    22045976.059    90274626.844  
 21  1  7 23  0 32.0000000  0  9G30G 8G28G 5G 9G27G 7G13G14
  20726275.836   108917424.249    20726283.844    84870717.179  
  21392867.797   112420289.600    21392875.930    87600313.453  
  22451994.438   117986060.301                                  
  23875322.344   125465519.358    23875327.496    97765480.170  
  23150243.531   121655258.533    23150250.730    94796440.492  
  22928088.227   120487900.782    22928096.223    93886764.102  
  20471123.352   107576552.360    20471128.555    83825914.092  
  23561831.344   123818319.872                                  
  22045431.992   115849797.144    22045437.809    90272422.589  
 21  1  7 23  0 33.0000000  0  9G30G 8G28G 5G 9G27G 7G13G14
  20726011.875   108916036.008    20726019.824    84869635.439  
  21392852.391   112420210.113    21392860.574    87600251.509  
  22451474.047   117983322.093                                  
  23875628.961   125467139.512    23875636.223    97766742.632  
  23150930.219   121658865.543    23150937.219    94799251.150  
  22928537.773   120490263.852    22928545.430    93888605.457  
  20471218.078   107577049.334    20471223.316    83826301.339  
  23561204.664   123815023.778                                  
  22044893.430   115846968.676    22044899.320    90270218.588  
 21  1  7 23  0 34.0000000  0  9G30G 8G28G 5G 9G27G 7G13G14
  20725747.672   108914648.177    20725755.309    84868554.006  
  21392837.625   112420131.367    21392845.688    87600190.148  
  22450952.680   117980584.220                                  
  23875935.977   125468760.232    23875945.004    97768005.529  
  23151616.734   121662472.802    23151623.453    94802062.004  
  22928987.102   120492627.481    22928994.984    93890447.248  
  20471312.594   107577546.745    20471317.723    83826688.928  
  23560577.102   123811727.965                                  
  22044355.336   115844140.521    22044360.980    90268014.831  
 21  1  7 23  0 35.0000000  0  9G30G 8G28G 5G 9G27G 7G13G14
  20725483.742   108913260.711    20725491.371    84867472.866  
  21392822.852   112420053.310    21392830.824    87600129.327  
  22450431.195   117977846.648                                  
  23876244.609   125470381.492    23876253.234    97769268.842  
  23152302.586   121666080.274    23152310.270    94804873.019  
  22929437.156   120494991.656    22929445.016    93892289.457  
  20471407.094   107578044.558    20471412.543    83827076.842  
  23559950.383   123808432.432                                  
  22043817.016   115841312.708    22043823.328    90265811.341  
 21  1  7 23  0 36.0000000  0  9G30G 8G28G 5G 9G27G 7G13G14
  20725219.039   108911873.666    20725227.676    84866392.048  
  21392808.031   112419975.978    21392815.918    87600069.073  
  22449910.188   117975109.392                                  
  23876554.484   125472003.251    23876560.961    97770532.538  
  23152988.656   121669688.009    23152996.305    94807684.237  
  22929887.477   120497356.408    22929894.684    93894132.124  
  20471502.039   107578542.793    20471507.176    83827465.077  
  23559322.367   123805137.171                                  
  22043279.172   115838485.224    22043285.121    90263608.106  
 21  1  7 23  0 37.0000000  0  9G30G 8G28G 5G 9G27G 7G13G14
  20724955.719   108910487.001    20724963.996    84865311.538  
  21392793.430   112419899.348    21392801.961    87600009.357  
  22449389.445   117972372.427                                  
  23876865.055   125473625.551    23876869.953    97771796.668  
  23153675.727   121673296.022    23153683.594    94810495.676  
  22930337.438   120499721.740    22930344.773    93895975.235  
  20471597.211   107579041.462    20471602.234    83827853.649  
  23558695.750   123801842.250                                  
  22042741.484   115835658.108    22042746.957    90261405.158  
 21  1  7 23  0 38.0000000  0  9G30G 8G28G 5G 9G27G 7G13G14
  20724691.781   108909100.689    20724700.023    84864231.288  
  21392779.000   112419823.425    21392787.105    87599950.193  
  22448868.813   117969635.776                                  
  23877174.539   125475248.371    23877178.566    97773061.206  
  23154361.758   121676904.240    23154369.617    94813307.269  
  22930787.813   120502087.580    22930794.797    93897818.747  
  20471691.977   107579540.510    20471696.902    83828242.514  
  23558068.977   123798547.531                                  
  22042203.117   115832831.285    22042209.375    90259202.441  
 21  1  7 23  0 39.0000000  0  9G30G 8G28G 5G 9G27G 7G13G14
  20724428.164   108907714.794    20724436.344    84863151.375  
  21392764.555   112419748.206    21392772.820    87599891.589  
  22448348.031   117966899.436                                  
  23877482.000   125476871.769    23877487.414    97774326.197  
  23155048.867   121680512.661    23155056.680    94816119.025  
  22931238.016   120504454.016    22931245.434    93899662.726  
  20471786.844   107580040.037    20471792.320    83828631.757  
  23557442.125   123795253.129                                  
  22041665.695   115830004.803    22041671.133    90256999.989  
 21  1  7 23  0 40.0000000  0  9G30G 8G28G 5G 9G27G 7G13G14
  20724164.461   108906329.258    20724172.809    84862071.736  
  21392750.156   112419673.687    21392758.816    87599833.520  
  22447827.141   117964163.404                                  
  23877789.031   125478495.640    23877796.770    97775591.557  
  23155736.063   121684121.377    23155743.473    94818931.013  
  22931689.219   120506820.985    22931695.887    93901507.113  
  20471881.828   107580539.922    20471887.227    83829021.276  
  23556815.242   123791959.000                                  
  22041127.594   115827178.659    22041133.984    90254797.796  
 21  1  7 23  0 41.0000000  0  9G30G 8G28G 5G 9G27G 7G13G14
  20723900.883   108904944.159    20723909.098    84860992.437  
  21392736.391   112419599.918    21392744.566    87599776.038  
  22447306.336   117961427.700                                  
  23878098.055   125480120.109    23878105.738    97776857.376  
  23156422.664   121687730.345    23156430.621    94821743.189  
  22932138.891   120509188.589    22932146.043    93903352.004  
  20471977.125   107581040.290    20471982.355    83829411.179  
  23556188.195   123788665.199                                  
  22040590.266   115824352.892    22040596.191    90252595.901  
 21  1  7 23  0 42.0000000  0  9G30G 8G28G 5G 9G27G 7G13G14
  20723637.766   108903559.425    20723645.574    84859913.425  
  21392722.289   112419526.849    21392730.617    87599719.101  
  22446786.125   117958692.302                                  
  23878407.945   125481745.110    23878414.711    97778123.601  
  23157109.453   121691339.536    23157116.695    94824555.545  
  22932589.742   120511556.696    22932596.926    93905197.278  
  20472072.852   107581541.059    20472077.996    83829801.385  
  23555561.125   123785371.682                                  
  22040052.680   115821527.452    22040058.445    90250394.264  
 21  1  7 23  0 43.0000000  0  9G30G 8G28G 5G 9G27G 7G13G14
  20723374.305   108902175.071    20723382.059    84858834.708  
  21392708.609   112419454.488    21392716.957    87599662.715  
  22446266.250   117955957.200                                  
  23878719.523   125483370.585    23878724.230    97779390.200  
  23157796.438   121694948.950    23157803.688    94827368.076  
  22933040.313   120513925.365    22933047.918    93907042.993  
  20472168.148   107582042.246    20472173.383    83830191.922  
  23554934.531   123782078.418                                  
  22039514.242   115818702.308    22039520.465    90248192.852  
 21  1  7 23  0 44.0000000  0  9G30G 8G28G 5G 9G27G 7G13G14
  20723111.164   108900791.132    20723119.137    84857756.309  
  21392695.500   112419382.848    21392703.430    87599606.892  
  22445745.305   117953222.432                                  
  23879029.586   125484996.649    23879033.730    97780657.264  
  23158483.422   121698558.638    23158490.703    94830180.816  
  22933490.625   120516294.634    22933498.730    93908889.179  
  20472263.523   107582543.870    20472268.438    83830582.800  
  23554308.367   123778785.468                                  
  22038977.156   115815877.552    22038983.246    90245991.746  
 21  1  7 23  0 45.0000000  0  9G30G 8G28G 5G 9G27G 7G13G14
  20722847.336   108899407.581    20722855.359    84856678.220  
  21392681.664   112419311.924    21392689.504    87599551.625  
  22445225.000   117950487.972                                  
  23879339.188   125486623.197    23879343.324    97781924.711  
  23159170.258   121702168.593    23159177.156    94832993.766  
  22933942.188   120518664.450    22933949.129    93910735.787  
  20472359.203   107583045.905    20472364.172    83830973.995  
  23553682.063   123775492.847                                  
  22038439.898   115813053.109    22038445.441    90243790.880  
 21  1  7 23  0 46.0000000  0  9G30G 8G28G 5G 9G27G 7G13G14
  20722584.281   108898024.408    20722592.441    84855600.428  
  21392667.898   112419241.727    21392676.230    87599496.922  
  22444704.578   117947753.832                                  
  23879646.523   125488250.363    23879652.742    97783192.642  
  23159856.930   121705778.723    23159864.563    94835806.859  
  22934393.258   120521034.839    22934400.160    93912582.840  
  20472454.367   107583548.376    20472459.895    83831365.524  
  23553055.391   123772200.462                                  
  22037902.148   115810228.999    22037907.887    90241590.279  
 21  1  7 23  0 47.0000000  0  9G30G 8G28G 5G 9G27G 7G13G14
  20722321.141   108896641.642    20722328.844    84854522.943  
  21392655.023   112419172.213    21392663.121    87599442.757  
  22444184.789   117945019.972                                  
  23879954.891   125489877.975    23879962.617    97784460.914  
  23160543.773   121709389.119    23160551.516    94838620.149  
  22934844.297   120523405.783    22934851.480    93914430.335  
  20472550.117   107584051.255    20472555.508    83831757.375  
  23552428.930   123768908.374                                  
  22037365.070   115807405.251    22037371.023    90239389.958  
 21  1  7 23  0 48.0000000  0  9G30G 8G28G 5G 9G27G 7G13G14
  20722057.781   108895259.185    20722066.020    84853445.708  
  21392641.586   112419103.396    21392649.578    87599389.135  
  22443664.289   117942286.410                                  
  23880264.500   125491506.096    23880272.547    97785729.576  
  23161230.898   121712999.739    23161238.676    94841433.623  
  22935295.844   120525777.248    22935302.938    93916278.231  
  20472645.984   107584554.503    20472651.383    83832149.522  
  23551802.563   123765616.550                                  
  22036827.836   115804581.784    22036833.625    90237189.849  
 21  1  7 23  0 49.0000000  0  9G30G 8G28G 5G 9G27G 7G13G14
  20721794.781   108893877.239    20721802.977    84852368.868  
  21392629.188   112419035.388    21392637.047    87599336.144  
  22443144.133   117939553.230                                  
  23880575.648   125493134.881    23880582.750    97786998.752  
  23161917.961   121716610.702    23161925.766    94844247.359  
  22935747.375   120528149.329    22935754.520    93918126.607  
  20472741.922   107585058.276    20472746.973    83832542.070  
  23551176.398   123762325.081                                  
  22036290.781   115801758.748    22036296.664    90234990.080  
 21  1  7 23  0 50.0000000  0  9G30G 8G28G 5G 9G27G 7G13G14
  20721531.898   108892495.615    20721539.637    84851292.274  
  21392615.938   112418968.015    21392624.387    87599283.639  
  22442624.320   117936820.318                                  
  23880888.000   125494764.083    23880892.941    97788268.248  
  23162605.578   121720221.813    23162612.914    94847061.212  
  22936198.797   120530521.954    22936205.816    93919975.403  
  20472837.797   107585562.402    20472843.262    83832934.895  
  23550549.844   123759033.859                                  
  22035753.180   115798935.942    22035758.898    90232790.494  
 21  1  7 23  0 51.0000000  0  9G30G 8G28G 5G 9G27G 7G13G14
  20721269.414   108891114.410    20721276.922    84850216.013  
  21392603.875   112418901.381    21392611.445    87599231.719  
  22442104.672   117934087.717                                  
  23881198.633   125496393.889    23881202.832    97789538.226  
  23163292.711   121723833.189    23163299.930    94849875.267  
  22936650.414   120532895.153    22936657.496    93921824.648  
  20472933.781   107586067.013    20472939.289    83833328.104  
  23549924.188   123755742.919                                  
  22035216.492   115796113.562    22035222.234    90230591.235  
 21  1  7 23  0 52.0000000  0  9G30G 8G28G 5G 9G27G 7G13G14
  20721006.336   108889733.599    20721014.242    84849140.054  
  21392591.047   112418835.461    21392598.848    87599180.356  
  22441584.383   117931355.445                                  
  23881508.148   125498024.214    23881513.070    97790808.612  
  23163979.875   121727444.823    23163987.355    94852689.526  
  22937101.227   120535268.916    22937109.320    93923674.333  
  20473029.828   107586572.010    20473035.246    83833721.594  
  23549297.617   123752452.310                                  
  22034678.742   115793291.487    22034685.246    90228392.221  
 21  1  7 23  0 53.0000000  0  9G30G 8G28G 5G 9G27G 7G13G14
  20720743.711   108888353.140    20720752.105    84848064.368  
  21392578.352   112418770.206    21392586.523    87599129.509  
  22441064.930   117928623.467                                  
  23881815.844   125499655.051    23881823.559    97792079.406  
  23164667.234   121731056.676    23164674.762    94855503.958  
  22937554.227   120537643.201    22937561.449    93925524.426  
  20473126.195   107587077.398    20473131.496    83834115.393  
  23548670.891   123749161.948                                  
  22034142.500   115790469.748    22034148.105    90226193.469  
 21  1  7 23  0 54.0000000  0  9G30G 8G28G 5G 9G27G 7G13G14
  20720481.211   108886973.059    20720488.977    84846988.986  
  21392566.453   112418705.681    21392574.238    87599079.229  
  22440545.195   117925891.796                                  
  23882125.148   125501286.416    23882133.887    97793350.606  
  23165354.656   121734668.759    23165361.867    94858318.568  
  22938005.391   120540018.033    22938013.328    93927374.947  
  20473222.430   107587583.223    20473227.699    83834509.541  
  23548045.906   123745871.864                                  
  22033606.250   115787648.334    22033611.246    90223994.969  
 21  1  7 23  0 55.0000000  0  9G30G 8G28G 5G 9G27G 7G13G14
  20720218.500   108885593.407    20720226.609    84845913.926  
  21392554.242   112418641.931    21392562.184    87599029.553  
  22440024.375   117923160.430                                  
  23882437.078   125502918.357    23882443.785    97794622.239  
  23166041.953   121738281.119    23166049.402    94861133.394  
  22938457.758   120542393.482    22938465.367    93929225.939  
  20473318.727   107588089.476    20473324.445    83834904.026  
  23547419.031   123742582.095                                  
  22033068.906   115784827.262    22033074.414    90221796.728  
 21  1  7 23  0 56.0000000  0  9G30G 8G28G 5G 9G27G 7G13G14
  20719955.914   108884214.131    20719963.859    84844839.173  
  21392541.891   112418578.853    21392550.129    87598980.401  
  22439505.547   117920429.383                                  
  23882749.336   125504550.788    23882754.504    97795894.254  
  23166729.320   121741893.683    23166736.527    94863948.379  
  22938910.180   120544769.449    22938917.293    93931077.338  
  20473415.109   107588596.145    20473420.336    83835298.833  
  23546793.367   123739292.617                                  
  22032531.781   115782006.539    22032538.066    90219598.762  
 21  1  7 23  0 57.0000000  0  9G30G 8G28G 5G 9G27G 7G13G14
  20719693.422   108882835.254    20719701.602    84843764.719  
  21392530.055   112418516.498    21392537.965    87598931.810  
  22438985.906   117917698.669                                  
  23883062.266   125506183.767    23883065.520    97797166.703  
  23167416.844   121745506.518    23167423.965    94866763.579  
  22939361.797   120547146.029    22939368.910    93932929.220  
  20473511.641   107589103.254    20473517.008    83835693.991  
  23546167.375   123736003.409                                  
  22031995.195   115779186.129    22032000.883    90217401.043  
 21  1  7 23  0 58.0000000  0  9G30G 8G28G 5G 9G27G 7G13G14
  20719431.297   108881456.744    20719439.199    84842690.555  
  21392518.727   112418454.870    21392526.195    87598883.790  
  22438465.797   117914968.235                                  
  23883372.992   125507817.264    23883377.023    97798439.561  
  23168104.336   121749119.558    23168111.797    94869578.934  
  22939814.766   120549523.153    22939821.773    93934781.530  
  20473608.539   107589610.776    20473613.359    83836089.461  
  23545541.570   123732714.507                                  
  22031458.258   115776366.072    22031464.223    90215203.597  
 21  1  7 23  0 59.0000000  0  9G30G 8G28G 5G 9G27G 7G13G14
  20719169.219   108880078.650    20719177.176    84841616.719  
  21392506.750   112418393.969    21392514.820    87598836.337  
  22437946.875   117912238.129                                  
  23883681.422   125509451.321    23883688.105    97799712.854  
  23168791.164   121752732.864    23168798.852    94872394.490  
  22940266.961   120551900.831    22940274.273    93936634.264  
  20473704.883   107590118.738    20473710.113    83836485.275  
  23544915.617   123729425.900                                  
  22030921.883   115773546.372    22030928.184    90213006.429  
 21  1  7 23  1  0.0000000  0  9G30G 8G28G 5G 9G27G 7G13G14
  20718907.125   108878700.952    20718915.320    84840543.188  
  21392495.219   112418333.785    21392503.379    87598789.434  
  22437426.844   117909508.343                                  
  23883990.031   125511085.907    23883999.133    97800986.561  
  23169479.414   121756346.406    23169486.773    94875210.235  
  22940719.133   120554279.068    22940726.652    93938487.432  
  20473801.797   107590627.132    20473807.109    83836881.430  
  23544289.188   123726137.589                                  
  22030385.234   115770727.014    22030391.465    90210809.527  
 21  1  7 23  1  1.0000000  0  9G30G 8G28G 5G 9G27G 7G13G14
  20718644.742   108877323.603    20718652.898    84839469.930  
  21392484.477   112418274.254    21392492.449    87598743.050  
  22436907.266   117906778.850                                  
  23884300.805   125512721.026    23884309.934    97802260.671  
  23170166.641   121759960.217    23170174.242    94878026.192  
  22941171.953   120556657.844    22941179.730    93940341.029  
  20473898.344   107591135.913    20473904.012    83837277.882  
  23543663.867   123722849.517                                  
  22029848.344   115767907.959    22029855.219    90208612.861  
 21  1  7 23  1  2.0000000  0  9G30G 8G28G 5G 9G27G 7G13G14
  20718382.945   108875946.649    20718390.961    84838396.975  
  21392472.992   112418215.463    21392480.313    87598697.241  
  22436388.625   117904049.634                                  
  23884614.078   125514356.650    23884620.621    97803535.177  
  23170854.789   121763574.217    23170862.531    94880842.297  
  22941624.750   120559037.214    22941631.727    93942195.079  
  20473995.484   107591645.117    20474000.637    83837674.666  
  23543038.461   123719561.776                                  
  22029312.430   115765089.239    22029318.234    90206416.452  
 21  1  7 23  1  3.0000000  0  9G30G 8G28G 5G 9G27G 7G13G14
  20718121.008   108874570.092    20718128.727    84837324.335  
  21392462.031   112418157.390    21392469.977    87598651.988  
  22435869.133   117901320.765                                  
  23884927.297   125515992.821    23884931.879    97804810.110  
  23171542.906   121767188.468    23171550.188    94883658.597  
  22942077.711   120561417.112    22942085.000    93944049.545  
  20474092.125   107592154.743    20474097.891    83838071.771  
  23542412.234   123716274.307                                  
  22028775.844   115762270.888    22028782.191    90204220.337  
 21  1  7 23  1  4.0000000  0  9G30G 8G28G 5G 9G27G 7G13G14
  20717859.219   108873193.974    20717867.098    84836252.033  
  21392450.797   112418100.044    21392459.098    87598607.306  
  22435350.023   117898592.257                                  
  23885240.031   125517629.530    23885243.641    97806085.470  
  23172230.477   121770803.003    23172237.723    94886475.117  
  22942530.734   120563797.612    22942537.348    93945904.477  
  20474189.547   107592664.828    20474194.922    83838469.237  
  23541787.570   123712987.189                                  
  22028240.359   115759452.872    22028245.707    90202024.484  
 21  1  7 23  1  5.0000000  0  9G30G 8G28G 5G 9G27G 7G13G14
  20717597.477   108871818.212    20717604.863    84835180.012  
  21392440.203   112418043.391    21392448.414    87598563.158  
  22434830.508   117895864.022                                  
  23885549.445   125519266.775    23885555.406    97807361.253  
  23172918.539   121774417.760    23172925.852    94889291.806  
  22942983.961   120566178.668    22942990.277    93947759.848  
  20474286.695   107593175.322    20474291.441    83838867.030  
  23541162.102   123709700.295                                  
  22027703.742   115756635.205    22027709.582    90199828.899  
 21  1  7 23  1  6.0000000  0  9G30G 8G28G 5G 9G27G 7G13G14
  20717335.313   108870442.823    20717343.211    84834108.284  
  21392429.484   112417987.445    21392437.660    87598519.564  
  22434311.273   117893136.073                                  
  23885858.930   125520904.515    23885867.441    97808637.422  
  23173606.789   121778032.731    23173614.160    94892108.659  
  22943436.898   120568560.248    22943443.945    93949615.624  
  20474383.813   107593686.204    20474388.582    83839265.115  
  23540536.008   123706413.698                                  
  22027167.641   115753817.830    22027173.898    90197633.542  
 21  1  7 23  1  7.0000000  0  9G30G 8G28G 5G 9G27G 7G13G14
  20717074.352   108869067.840    20717082.023    84833036.864  
  21392418.938   112417932.234    21392427.234    87598476.538  
  22433792.430   117890408.442                                  
  23886169.586   125522542.867    23886179.188    97809914.047  
  23174294.508   121781647.972    23174301.508    94894925.726  
  22943890.422   120570942.406    22943897.859    93951471.851  
  20474481.016   107594197.530    20474486.410    83839663.553  
  23539910.211   123703127.382                                  
  22026631.563   115751000.816    22026637.547    90195438.470  
 21  1  7 23  1  8.0000000  0  9G30G 8G28G 5G 9G27G 7G13G14
  20716812.672   108867693.247    20716820.617    84831965.753  
  21392408.641   112417877.718    21392416.508    87598434.061  
  22433273.188   117887681.147                                  
  23886481.680   125524181.637    23886490.094    97811191.001  
  23174982.664   121785263.454    23174989.750    94897742.985  
  22944343.742   120573325.132    22944351.000    93953328.521  
  20474578.508   107594709.281    20474583.844    83840062.322  
  23539285.539   123699841.398                                  
  22026095.141   115748184.139    22026101.633    90193243.660  
 21  1  7 23  1  9.0000000  0  9G30G 8G28G 5G 9G27G 7G13G14
  20716550.664   108866319.067    20716558.922    84830894.965  
  21392398.195   112417823.935    21392406.184    87598392.152  
  22432755.086   117884954.179                                  
  23886796.625   125525821.026    23886801.641    97812468.432  
  23175670.352   121788879.164    23175678.059    94900560.423  
  22944797.406   120575708.431    22944804.363    93955185.637  
  20474676.141   107595221.469    20474681.234    83840461.429  
  23538660.039   123696555.664                                  
  22025559.641   115745367.817    22025565.512    90191049.124  
 21  1  7 23  1 10.0000000  0  9G30G 8G28G 5G 9G27G 7G13G14
  20716289.391   108864945.259    20716297.652    84829824.464  
  21392388.484   112417770.852    21392396.441    87598350.790  
  22432235.563   117882227.502                                  
  23887109.570   125527460.906    23887113.488    97813746.255  
  23176358.156   121792495.110    23176365.789    94903378.051  
  22945250.492   120578092.252    22945257.887    93957043.159  
  20474773.406   107595734.058    20474778.613    83840860.846  
  23538034.789   123693270.234                                  
  22025023.531   115742551.833    22025029.816    90188854.849  
 21  1  7 23  1 11.0000000  0  9G30G 8G28G 5G 9G27G 7G13G14
  20716028.086   108863571.840    20716035.930    84828754.268  
  21392378.336   112417718.494    21392386.270    87598309.994  
  22431716.953   117879501.141                                  
  23887421.555   125529101.339    23887426.121    97815024.518  
  23177046.883   121796111.321    23177054.320    94906195.880  
  22945705.438   120580476.673    22945712.016    93958901.149  
  20474871.305   107596247.097    20474876.852    83841260.620  
  23537409.656   123689985.113                                  
  22024487.852   115739736.178    22024494.027    90186660.837  
 21  1  7 23  1 12.0000000  0  9G30G 8G28G 5G 9G27G 7G13G14
  20715766.766   108862198.837    20715774.984    84827684.394  
  21392368.758   112417666.871    21392376.727    87598269.767  
  22431198.664   117876775.102                                  
  23887731.984   125530742.295    23887738.438    97816303.205  
  23177734.461   121799727.771    23177741.586    94909013.891  
  22946158.844   120582861.660    22946166.090    93960759.586  
  20474968.898   107596760.558    20474973.957    83841660.715  
  23536785.055   123686700.303                                  
  22023951.914   115736920.882    22023957.813    90184467.095  
 21  1  7 23  1 13.0000000  0  9G30G 8G28G 5G 9G27G 7G13G14
  20715505.602   108860826.186    20715513.969    84826614.791  
  21392358.875   112417615.951    21392366.770    87598230.086  
  22430679.359   117874049.350                                  
  23888042.281   125532383.780    23888051.480    97817582.293  
  23178422.984   121803344.414    23178430.750    94911832.058  
  22946612.734   120585247.179    22946620.043    93962618.432  
  20475066.641   107597274.417    20475071.633    83842061.127  
  23536159.742   123683415.737                                  
  22023416.352   115734105.897    22023421.934    90182273.602  
 21  1  7 23  1 14.0000000  0  9G30G 8G28G 5G 9G27G 7G13G14
  20715244.305   108859453.936    20715252.219    84825545.508  
  21392349.492   112417565.760    21392357.348    87598190.978  
  22430160.398   117871323.918                                  
  23888354.930   125534025.838    23888363.953    97818861.812  
  23179111.211   121806961.324    23179118.340    94914650.428  
  22947066.750   120587633.256    22947073.434    93964477.709  
  20475164.570   107597788.698    20475170.105    83842461.866  
  23535534.680   123680131.475                                  
  22022880.500   115731291.271    22022887.160    90180080.390  
 21  1  7 23  1 15.0000000  0  9G30G 8G28G 5G 9G27G 7G13G14
  20714983.078   108858082.076    20714991.504    84824476.528  
  21392339.727   112417516.264    21392347.402    87598152.412  
  22429642.133   117868598.768                                  
  23888669.727   125535668.358    23888676.609    97820141.683  
  23179799.633   121810578.453    23179806.945    94917468.964  
  22947520.922   120590019.892    22947527.660    93966337.426  
  20475262.234   107598303.392    20475267.809    83842862.931  
  23534909.438   123676847.487                                  
  22022345.414   115728476.961    22022351.504    90177887.420  
 21  1  7 23  1 16.0000000  0  9G30G 8G28G 5G 9G27G 7G13G14
  20714722.461   108856710.636    20714730.621    84823407.872  
  21392330.703   112417467.532    21392338.727    87598114.439  
  22429123.336   117865873.982                                  
  23888984.453   125537311.477    23888989.305    97821422.029  
  23180488.313   121814195.910    23180495.254    94920287.757  
  22947975.227   120592407.144    22947982.020    93968197.626  
  20475360.547   107598818.566    20475365.684    83843264.364  
  23534285.195   123673563.864                                  
  22021809.750   115725663.027    22021815.844    90175694.746  
 21  1  7 23  1 17.0000000  0  9G30G 8G28G 5G 9G27G 7G13G14
  20714461.172   108855339.575    20714469.398    84822339.513  
  21392321.313   112417419.446    21392329.262    87598076.970  
  22428605.164   117863149.497                                  
  23889297.844   125538955.080    23889301.859    97822702.756  
  23181176.828   121817813.538    23181184.238    94923106.686  
  22948429.430   120594794.925    22948436.070    93970058.233  
  20475458.453   107599334.133    20475463.977    83843666.101  
  23533660.297   123670280.481                                  
  22021274.195   115722849.413    22021280.883    90173502.325  
 21  1  7 23  1 18.0000000  0  9G30G 8G28G 5G 9G27G 7G13G14
  20714200.438   108853968.902    20714208.910    84821271.454  
  21392312.648   112417372.091    21392320.137    87598040.069  
  22428086.391   117860425.325                                  
  23889609.422   125540599.224    23889615.195    97823983.924  
  23181864.805   121821431.406    23181872.934    94925925.800  
  22948883.844   120597183.260    22948890.672    93971919.268  
  20475556.703   107599850.118    20475561.949    83844068.167  
  23533034.867   123666997.412                                  
  22020738.945   115720036.137    22020744.801    90171310.160  
 21  1  7 23  1 19.0000000  0  9G30G 8G28G 5G 9G27G 7G13G14
  20713939.969   108852598.604    20713947.914    84820203.689  
  21392303.625   112417325.440    21392311.164    87598003.716  
  22427568.938   117857701.447                                  
  23889920.234   125542243.904    23889928.000    97825265.507  
  23182553.586   121825049.546    23182561.281    94928745.134  
  22949338.039   120599572.137    22949344.906    93973780.730  
  20475654.977   107600366.525    20475660.031    83844470.565  
  23532410.602   123663714.585                                  
  22020203.844   115717223.204    22020209.648    90169118.264  
 21  1  7 23  1 20.0000000  0  9G30G 8G28G 5G 9G27G 7G13G14
  20713679.023   108851228.701    20713687.180    84819136.233  
  21392295.070   112417279.509    21392302.805    87597967.925  
  22427050.242   117854977.881                                  
  23890231.789   125543889.115    23890240.742    97826547.491  
  23183241.969   121828667.887    23183249.660    94931564.619  
  22949792.945   120601961.555    22949799.898    93975642.613  
  20475753.289   107600883.337    20475758.758    83844873.279  
  23531785.500   123660432.084                                  
  22019668.688   115714410.612    22019674.605    90166926.634  
 21  1  7 23  1 21.0000000  0  9G30G 8G28G 5G 9G27G 7G13G14
  20713418.305   108849859.181    20713426.652    84818069.081  
  21392286.227   112417234.269    21392294.160    87597932.671  
  22426532.258   117852254.643                                  
  23890545.844   125545534.818    23890553.434    97827829.850  
  23183930.898   121832286.477    23183938.117    94934384.304  
  22950247.617   120604351.581    22950254.883    93977504.972  
  20475851.906   107601400.581    20475857.051    83845276.322  
  23531161.484   123657149.859                                  
  22019133.344   115711598.332    22019139.797    90164735.248  
 21  1  7 23  1 22.0000000  0  9G30G 8G28G 5G 9G27G 7G13G14
  20713157.883   108848490.069    20713166.176    84817002.235  
  21392277.742   112417189.757    21392285.309    87597897.989  
  22426013.500   117849531.721                                  
  23890861.063   125547181.086    23890866.754    97829112.643  
  23184619.258   121835905.298    23184627.219    94937204.161  
  22950702.414   120606742.135    22950709.988    93979367.738  
  20475950.383   107601918.254    20475955.645    83845679.706  
  23530537.500   123653867.931                                  
  22018598.281   115708786.413    22018604.473    90162544.144  
 21  1  7 23  1 23.0000000  0  9G30G 8G28G 5G 9G27G 7G13G14
  20712897.578   108847121.370    20712905.344    84815935.719  
  21392269.305   112417145.946    21392277.078    87597863.853  
  22425495.680   117846809.092                                  
  23891176.156   125548827.903    23891180.750    97830395.876  
  23185307.703   121839524.393    23185315.816    94940024.237  
  22951157.914   120609133.273    22951165.145    93981230.958  
  20476048.680   107602436.355    20476053.605    83846083.421  
  23529912.563   123650586.273                                  
  22018062.914   115705974.832    22018068.863    90160353.304  
 21  1  7 23  1 24.0000000  0  9G30G 8G28G 5G 9G27G 7G13G14
  20712637.242   108845753.034    20712644.844    84814869.485  
  21392261.547   112417102.859    21392269.266    87597830.283  
  22424977.586   117844086.791                                  
  23891489.391   125550475.226    23891494.867    97831679.503  
  23185996.273   121843143.687    23186004.043    94942844.466  
  22951613.188   120611524.956    22951619.957    93983094.606  
  20476147.680   107602954.871    20476152.770    83846487.454  
  23529288.398   123647304.961                                  
  22017528.352   115703163.580    22017534.516    90158162.719  
 21  1  7 23  1 25.0000000  0  9G30G 8G28G 5G 9G27G 7G13G14
  20712377.086   108844385.097    20712384.992    84813803.563  
  21392253.531   112417060.505    21392261.070    87597797.278  
  22424459.469   117841364.800                                  
  23891801.383   125552123.078    23891808.195    97832963.553  
  23186684.781   121846763.260    23186693.148    94945664.912  
  22952067.898   120613917.193    22952074.973    93984958.687  
  20476246.195   107603473.830    20476251.426    83846891.845  
  23528663.672   123644023.912                                  
  22016993.398   115700352.694    22016999.535    90155972.420  
 21  1  7 23  1 26.0000000  0  9G30G 8G28G 5G 9G27G 7G13G14
  20712116.758   108843017.531    20712124.430    84812737.921  
  21392245.258   112417018.842    21392253.059    87597764.815  
  22423941.969   117838643.089                                  
  23892112.055   125553771.469    23892121.906    97834248.024  
  23187373.688   121850383.007    23187381.371    94948485.489  
  22952523.094   120616309.965    22952530.500    93986823.186  
  20476345.195   107603993.160    20476350.098    83847296.516  
  23528039.930   123640743.158                                  
  22016458.484   115697542.099    22016464.484    90153782.352  
 21  1  7 23  1 27.0000000  0  9G30G 8G28G 5G 9G27G 7G13G14
  20711856.461   108841650.338    20711864.539    84811672.578  
  21392237.422   112416977.874    21392245.688    87597732.888  
  22423423.898   117835921.672                                  
  23892426.102   125555420.307    23892434.898    97835532.828  
  23188062.531   121854002.997    23188070.844    94951306.258  
  22952978.750   120618703.312    22952985.797    93988688.135  
  20476444.094   107604512.917    20476449.105    83847701.515  
  23527415.594   123637462.642                                  
  22015923.406   115694731.834    22015929.477    90151592.531  
 21  1  7 23  1 28.0000000  0  9G30G 8G28G 5G 9G27G 7G13G14
  20711596.750   108840283.581    20711604.402    84810607.575  
  21392229.797   112416937.660    21392237.488    87597701.553  
  22422906.789   117833200.620                                  
  23892742.039   125557069.824    23892748.605    97836818.155  
  23188751.672   121857623.270    23188759.730    94954127.246  
  22953434.430   120621097.231    22953441.344    93990553.526  
  20476543.078   107605033.131    20476548.359    83848106.876  
  23526791.547   123634182.505                                  
  22015389.273   115691921.964    22015394.656    90149403.025  
 21  1  7 23  1 29.0000000  0  9G30G 8G28G 5G 9G27G 7G13G14
  20711336.672   108838917.201    20711344.320    84809542.860  
  21392222.297   112416898.174    21392230.215    87597670.785  
  22422388.492   117830479.863                                  
  23893057.891   125558719.822    23893062.746    97838103.859  
  23189440.813   121861243.808    23189448.402    94956948.444  
  22953890.508   120623491.682    22953897.059    93992419.334  
  20476641.789   107605553.767    20476647.199    83848512.570  
  23526166.969   123630902.638                                  
  22014854.344   115689112.412    22014860.551    90147213.761  
 21  1  7 23  1 30.0000000  0  9G30G 8G28G 5G 9G27G 7G13G14
  20711076.695   108837551.213    20711084.348    84808478.454  
  21392214.906   112416859.379    21392222.832    87597640.556  
  22421870.453   117827759.425                                  
  23893373.578   125560370.320    23893377.000    97839389.964  
  23190130.047   121864864.526    23190137.078    94959769.782  
  22954346.422   120625886.741    22954353.371    93994285.611  
  20476740.938   107606074.833    20476746.402    83848918.596  
  23525542.758   123627623.043                                  
  22014319.516   115686303.211    22014325.898    90145024.780  
