     2.10           OBSERVATION DATA    G (GPS)             RINEX VERSION / TYPE
RTKCONV 2.4.2                           20180116 022310 UTC PGM / RUN BY / DATE 
log: C:\Users\peiyuan\Desktop\Group_2 at S5\57960150No.6S5  COMMENT             
format: RINEX                                               COMMENT             
A                                                           MARKER NAME         
                                                            MARKER NUMBER       
                                                            OBSERVER / AGENCY   
5448485796          Trimble R10         4.90                REC # / TYPE / VERS 
                    TRMR10          NONE                    ANT # / TYPE        
        0.0000        0.0000        0.0000                  APPROX POSITION XYZ 
        1.9430        0.0000        0.0000                  ANTENNA: DELTA H/E/N
     1     1                                                WAVELENGTH FACT L1/2
     4    C1    L1    C2    L2                              # / TYPES OF OBSERV 
  2018     1    15    22     8   16.0000000     GPS         TIME OF FIRST OBS   
  2018     1    15    22    42   22.0000000     GPS         TIME OF LAST OBS    
                                                            END OF HEADER       
 18  1 15 22  8 16.0000000  0  9G 7G22G31G23G 6G 3G26G16G 9
  24011343.320   126180458.7131   24011347.348    98322454.5631 
  23910765.141   125651912.7661                                 
  24743675.875   130028896.2471   24743679.789   101321236.7181 
  20359611.906   106990481.4981                                 
  24259590.719   127485006.9881   24259597.551    99338997.0611 
  22408204.523   117755906.1071   22408211.234    91757876.1641 
  21658143.516   113814312.6581   21658150.359    88686506.1521 
  20804760.664   109329758.1411                                 
  21277634.539   111814723.1781   21277639.559    87128378.2931 
 18  1 15 22  8 17.0000000  0  9G 7G22G31G23G 6G 3G26G16G 9
  24010723.492   126177202.725    24010728.191    98319917.434  
  23911421.164   125655359.548                                  
  24744306.813   130032212.389    24744310.891   101323820.712  
  20359493.914   106989861.117                                  
  24259885.008   127486555.406    24259892.211    99340203.631  
  22408797.820   117759024.750    22408805.105    91760306.284  
  21658371.484   113815509.342    21658377.977    88687438.641  
  20804526.906   109328530.201                                  
  21277159.563   111812229.725    21277164.457    87126435.351  
 18  1 15 22  8 18.0000000  0  9G 7G22G31G23G 6G 3G26G16G 9
  24010103.938   126173947.526    24010108.523    98317380.918  
  23912077.031   125658807.133                                  
  24744938.219   130035529.215    24744942.547   101326405.259  
  20359376.375   106989241.854                                  
  24260178.828   127488104.939    24260186.711    99341411.080  
  22409391.609   117762144.378    22409398.906    91762737.168  
  21658599.391   113816707.314    21658605.957    88688372.120  
  20804293.547   109327303.640                                  
  21276685.203   111809737.263    21276690.203    87124493.174  
 18  1 15 22  8 19.0000000  0  9G 7G22G31G23G 6G 3G26G16G 9
  24009484.844   126170693.154    24009489.125    98314845.059  
  23912733.586   125662255.532                                  
  24745569.219   130038846.760    24745573.973   101328990.381  
  20359258.148   106988623.769                                  
  24260474.766   127489655.700    24260482.473    99342619.479  
  22409985.297   117765265.071    22409992.086    91765168.862  
  21658827.422   113817906.614    21658834.105    88689306.642  
  20804060.594   109326078.516                                  
  21276211.273   111807245.822    21276215.789    87122551.788  
 18  1 15 22  8 20.0000000  0  9G 7G22G31G23G 6G 3G26G16G 9
  24008865.242   126167439.758    24008870.105    98312309.954  
  23913389.805   125665704.839                                  
  24746201.023   130042165.053    24746205.355   101331576.073  
  20359141.109   106988006.904                                  
  24260769.375   127491207.722    24260777.695    99343828.846  
  22410579.539   117768386.850    22410586.082    91767601.406  
  21659056.023   113819107.300    21659062.508    88690242.236  
  20803827.828   109324854.912                                  
  21275737.250   111804755.484    21275742.363    87120611.267  
 18  1 15 22  8 21.0000000  0  9G 7G22G31G23G 6G 3G26G16G 9
  24008246.195   126164187.178    24008251.430    98309775.460  
  23914046.109   125669154.996                                  
  24746832.586   130045484.086    24746837.137   101334162.324  
  20359024.055   106987391.218                                  
  24261065.609   127492760.926    24261073.125    99345039.119  
  22411174.117   117771509.692    22411180.488    91770034.788  
  21659284.602   113820309.318    21659291.277    88691178.875  
  20803595.297   109323632.709                                  
  21275263.750   111802266.174    21275268.453    87118671.542  
 18  1 15 22  8 22.0000000  0  9G 7G22G31G23G 6G 3G26G16G 9
  24007628.344   126160935.277    24007632.637    98307241.503  
  23914702.797   125672605.931                                  
  24747464.773   130048803.784    24747468.797   101336749.103  
  20358907.023   106986776.626                                  
  24261361.180   127494315.336    24261369.355    99346250.323  
  22411767.961   117774633.526    22411775.059    91772468.946  
  21659514.031   113821512.633    21659520.449    88692116.524  
  20803363.102   109322411.937                                  
  21274789.898   111799777.849    21274794.934    87116732.592  
 18  1 15 22  8 23.0000000  0  9G 7G22G31G23G 6G 3G26G16G 9
  24007009.180   126157684.311    24007013.871    98304708.281  
  23915359.930   125676057.704                                  
  24748095.984   130052124.238    24748100.855   101339336.477  
  20358790.367   106986163.213                                  
  24261657.625   127495870.950    24261664.602    99347462.478  
  22412362.609   117777758.393    22412369.520    91774903.911  
  21659743.148   113822717.303    21659749.750    88693055.232  
  20803130.703   109321192.587                                  
  21274316.898   111797290.558    21274321.883    87114794.439  
 18  1 15 22  8 24.0000000  0  9G 7G22G31G23G 6G 3G26G16G 9
  24006390.992   126154434.246    24006394.645    98302175.756  
  23916016.648   125679510.334                                  
  24748728.055   130055445.178    24748732.543   101341924.262  
  20358673.500   106985551.026                                  
  24261954.344   127497427.720    24261961.246    99348675.541  
  22412958.016   117780884.423    22412964.145    91777339.779  
  21659972.406   113823923.309    21659978.930    88693994.963  
  20802899.273   109319974.690                                  
  21273843.938   111794804.323    21273848.648    87112857.099  
 18  1 15 22  8 25.0000000  0  9G 7G22G31G23G 6G 3G26G16G 9
  24005772.586   126151184.973    24005776.645    98299643.814  
  23916674.219   125682963.776                                  
  24749360.609   130058767.040    24749364.199   101344512.697  
  20358557.430   106984939.982                                  
  24262249.961   127498985.821    24262257.328    99349889.650  
  22413552.859   117784011.400    22413559.020    91779776.382  
  21660202.453   113825130.698    21660209.090    88694935.795  
  20802667.773   109318758.231                                  
  21273370.586   111792319.105    21273375.512    87110920.579  
 18  1 15 22  8 26.0000000  0  9G 7G22G31G23G 6G 3G26G16G 9
  24005154.695   126147936.570    24005158.371    98297112.575  
  23917331.391   125686418.095                                  
  24749991.297   130062089.696    24749996.344   101347101.789  
  20358441.594   106984330.063                                  
  24262547.117   127500545.013    24262554.000    99351104.630  
  22414147.813   117787139.403    22414154.172    91782213.783  
  21660431.820   113826339.362    21660438.734    88695877.603  
  20802436.453   109317543.158                                  
  21272897.969   111789834.891    21272902.855    87108984.811  
 18  1 15 22  8 27.0000000  0  9G 7G22G31G23G 6G 3G26G16G 9
  24004537.961   126144688.894    24004541.000    98294581.950  
  23917988.539   125689873.143                                  
  24750624.805   130065412.972    24750628.188   101349691.334  
  20358325.555   106983721.290                                  
  24262843.977   127502105.334    24262850.930    99352320.469  
  22414743.258   117790268.458    22414749.543    91784652.002  
  21660662.164   113827549.300    21660669.480    88696820.423  
  20802205.516   109316329.517                                  
  21272425.461   111787351.698    21272430.563    87107049.861  
 18  1 15 22  8 28.0000000  0  9G 7G22G31G23G 6G 3G26G16G 9
  24003919.484   126141442.084    24003922.699    98292051.996  
  23918646.922   125693329.069                                  
  24751257.508   130068736.904    24751260.684   101352281.397  
  20358209.820   106983113.680                                  
  24263140.484   127503666.901    24263147.996    99353537.284  
  22415339.195   117793398.530    22415345.641    91787091.019  
  21660892.484   113828760.603    21660899.793    88697764.303  
  20801974.539   109315117.334                                  
  21271952.906   111784869.504    21271958.363    87105115.688  
 18  1 15 22  8 29.0000000  0  9G 7G22G31G23G 6G 3G26G16G 9
  24003301.164   126138196.176    24003305.801    98289522.703  
  23919304.266   125696785.797                                  
  24751890.148   130072061.503    24751893.082   101354871.971  
  20358094.563   106982507.254                                  
  24263437.438   127505229.652    24263444.852    99354754.978  
  22415934.648   117796529.664    22415941.504    91789530.859  
  21661123.734   113829973.200    21661130.164    88698709.203  
  20801744.406   109313906.598                                  
  21271480.703   111782388.322    21271486.336    87103182.312  
 18  1 15 22  8 30.0000000  0  9G 7G22G31G23G 6G 3G26G16G 9
  24002683.797   126134950.898    24002687.723    98286993.874  
  23919962.031   125700243.338                                  
  24752523.289   130075386.633    24752525.969   101357462.979  
  20357979.547   106981901.924                                  
  24263735.828                                                  
  22416531.180   117799661.813    22416537.449    91791971.490  
  21661354.688   113831187.096    21661361.145    88699655.095  
  20801514.070   109312697.247                                  
  21271008.891   111779908.192    21271014.406    87101249.733  
 18  1 15 22  8 31.0000000  0  9G 7G22G31G23G 6G 3G26G16G 9
  24002065.430   126131706.539    24002070.582    98284465.788  
  23920619.461   125703701.671                                  
  24753155.313   130078712.596    24753159.813   101360054.668  
  20357864.211   106981297.711                                  
  24264032.453                                                  
  22417127.156   117802794.925    22417133.355    91794412.871  
  21661585.852   113832402.279    21661592.551    88700601.984  
  20801284.250   109311489.267                                  
  21270536.977   111777428.955    21270542.246    87099317.868  
 18  1 15 22  8 32.0000000  0  8G 7G22G31G23G 3G26G16G 9
  24001447.805   126128462.834    24001453.016    98281938.211  
  23921278.445   125707160.765                                  
  24753788.492   130082039.248    24753792.918   101362646.875  
  20357749.508   106980694.600                                  
  22417723.219   117805928.980    22417730.090    91796854.999  
  21661817.227   113833618.708    21661824.059    88701549.828  
  20801054.688   109310282.644                                  
  21270065.688   111774950.733    21270070.891    87097386.787  
 18  1 15 22  8 33.0000000  0  9G 7G22G31G23G 6G 3G26G16G 9
  24000831.609   126125219.885    24000835.816    98279411.240  
  23921937.047   125710620.511                                  
  24754421.008   130085366.377    24754425.793   101365239.444  
  20357635.117   106980092.519                                  
  24264628.438                                                  
  22418319.523   117809064.000    22418326.715    91799297.877  
  21662049.172   113834836.335    21662055.746    88702498.617  
  20800825.234   109309077.309                                  
  21269594.305   111772473.321    21269599.805    87095456.346  
 18  1 15 22  8 34.0000000  0  9G 7G22G31G23G 6G 3G26G16G 9
  24000214.461   126121977.661    24000219.332    98276884.847  
  23922595.750   125714081.019                                  
  24755053.727   130088694.180    24755059.328   101367832.567  
  20357520.602   106979491.494                                  
  24264925.898                                                  
  22418916.680   117812199.914    22418923.582    91801741.453  
  21662281.070   113836055.178    21662287.953    88703448.368  
  20800596.477   109307873.300                                  
  21269122.648   111769996.894    21269128.027    87093526.672  
 18  1 15 22  8 35.0000000  0  9G 7G22G31G23G 6G 3G26G16G 9
  23999597.328   126118736.265    23999602.633    98274359.112  
  23923254.984   125717542.300                                  
  24755688.227   130092022.605    24755692.797   101370426.163  
  20357406.242   106978891.565                                  
  24265225.438                                                  
  22419513.875   117815336.823    22419521.109    91804185.807  
  21662513.289   113837275.322    21662519.875    88704399.132  
  20800367.617   109306670.691                                  
  21268651.680   111767521.435    21268657.297    87091597.729  
 18  1 15 22  8 36.0000000  0  9G 7G22G31G23G 6G 3G26G16G 9
  23998981.336   126115495.621    23998985.590    98271833.948  
  23923912.867   125721004.381                                  
  24756322.086   130095351.722    24756326.484   101373020.257  
  20357292.539   106978292.784                                  
  24265525.633                                                  
  22420110.281   117818474.791    22420117.367    91806630.975  
  21662745.500   113838496.744    21662752.414    88705350.902  
  20800138.898   109305469.470                                  
  21268180.813   111765046.997    21268185.859    87089669.598  
 18  1 15 22  8 37.0000000  0  9G 7G22G31G23G 6G 3G26G16G 9
  23998363.984   126112255.718    23998368.855    98269309.340  
  23924572.094   125724467.162                                  
  24756955.734   130098681.379    24756960.082   101375614.766  
  20357179.039   106977695.046                                  
  24265824.906   127517772.508    24265832.371    99364528.6531 
  22420707.625   117821613.625    22420715.172    91809076.811  
  21662978.367   113839719.393    21662985.031    88706303.625  
  20799910.469   109304269.559                                  
  21267709.844   111762573.430    21267714.949    87087742.137  
 18  1 15 22  8 38.0000000  0  9G 7G22G31G23G 6G 3G26G16G 9
  23997748.398   126109016.617    23997752.715    98266785.361  
  23925230.250   125727930.756                                  
  24757589.875   130102011.774    24757594.074   101378209.884  
  20357065.258   106977098.425                                  
  24266124.086   127519345.427    24266131.352    99365754.282  
  22421305.852   117824753.506    22421312.074    91811523.459  
  21663211.148   113840943.308    21663217.875    88707257.332  
  20799682.227   109303071.063                                  
  21267239.453   111760100.855    21267245.180    87085815.452  
 18  1 15 22  8 39.0000000  0  9G 7G22G31G23G 6G 3G26G16G 9
  23997132.023   126105778.237    23997136.316    98264261.954  
  23925889.961   125731395.039                                  
  24758222.875   130105342.756    24758227.344   101380805.434  
  20356952.125   106976502.870                                  
  24266424.195   127520919.396    24266430.996    99366980.734  
  22421903.031   117827894.284    22421910.441    91813970.820  
  21663444.117   113842168.476    21663451.270    88708212.015  
  20799454.516   109301873.872                                  
  21266769.406   111757629.211    21266774.922    87083889.496  
 18  1 15 22  8 40.0000000  0  9G 7G22G31G23G 6G 3G26G16G 9
  23996515.695   126102540.612    23996520.559    98261739.160  
  23926549.195   125734860.120                                  
  24758857.086   130108674.306    24758861.477   101383401.431  
  20356838.945   106975908.395                                  
  24266723.695   127522494.501    24266731.262    99368208.140  
  22422501.320   117831036.019    22422507.918    91816418.915  
  21663677.500   113843394.844    21663684.539    88709167.614  
  20799226.992   109300677.999                                  
  21266299.648   111755158.520    21266304.938    87081964.293  
 18  1 15 22  8 41.0000000  0  9G 7G22G31G23G 6G 3G26G16G 9
  23995899.500   126099303.645    23995903.992    98259216.871  
  23927209.109   125738325.854                                  
  24759491.484   130112006.429    24759495.383   101385997.884  
  20356725.984   106975314.910                                  
  24267023.906   127524070.666    24267031.031    99369436.368  
  22423099.695   117834178.596    22423105.473    91818867.673  
  21663911.203   113844622.381    21663917.758    88710124.139  
  20798999.727   109299483.431                                  
  21265829.906   111752688.663    21265834.930    87080039.730  
 18  1 15 22  8 42.0000000  0  9G 7G22G31G23G 6G 3G26G16G 9
  23995283.281   126096067.389    23995288.430    98256695.127  
  23927868.289   125741792.220                                  
  24760126.664   130115339.132    24760129.758   101388594.813  
  20356613.102   106974722.462                                  
  24267324.328   127525647.876    24267331.016    99370665.384  
  22423697.453   117837322.126    22423703.852    91821317.176  
  21664145.148   113845851.124    21664151.996    88711081.606  
  20798772.719   109298290.144                                  
  21265359.227   111750219.694    21265364.734    87078115.854  
 18  1 15 22  8 43.0000000  0  9G 7G22G31G23G 6G 3G26G16G 9
  23994669.445   126092831.813    23994672.836    98254173.872  
  23928528.492   125745259.245                                  
  24760759.281   130118672.354    24760764.063   101391192.160  
  20356500.547   106974130.982                                  
  24267624.945   127527226.070    24267631.066    99371895.092  
  22424295.781   117840466.521    22424301.848    91823767.358  
  21664379.016   113847081.008    21664385.777    88712039.955  
  20798546.016   109297098.101                                  
  21264889.922   111747751.573    21264895.117    87076192.640  
 18  1 15 22  8 44.0000000  0  9G 7G22G31G23G 6G 3G26G16G 9
  23994053.445   126089596.883    23994056.809    98251653.117  
  23929188.281   125748726.978                                  
  24761393.930   130122006.101    24761398.465   101393789.883  
  20356388.250   106973540.509                                  
  24267924.914   127528805.324    24267931.352    99373125.626  
  22424894.242   117843611.743    22424901.410    91826218.193  
  21664613.484   113848312.069    21664620.480    88712999.214  
  20798319.344   109295907.339                                  
  21264420.664   111745284.318    21264425.965    87074270.119  
 18  1 15 22  8 45.0000000  0  9G 7G22G31G23G 6G 3G26G16G 9
  23993437.094   126086362.539    23993441.445    98249132.853  
  23929848.539   125752195.325                                  
  24762029.078   130125340.353    24762033.145   101396387.993  
  20356276.039   106972951.018                                  
  24268225.797   127530385.634    24268232.160    99374357.015  
  22425492.883   117846757.871    22425499.641    91828669.734  
  21664848.086   113849544.233    21664854.965    88713959.344  
  20798093.055   109294717.799                                  
  21263951.242   111742817.874    21263956.535    87072348.217  
 18  1 15 22  8 46.0000000  0  9G 7G22G31G23G 6G 3G26G16G 9
  23992822.398   126083129.011    23992826.508    98246613.214  
  23930508.703   125755664.361                                  
  24762663.195   130128675.211    24762667.199   101398986.592  
  20356164.125   106972362.548                                  
  24268526.414   127531966.951    24268532.766    99375589.235  
  22426091.953   117849904.884    22426098.660    91831121.948  
  21665082.461   113850777.635    21665088.730    88714920.441  
  20797866.805   109293529.578                                  
  21263481.922   111740352.391    21263487.070    87070427.058  
 18  1 15 22  8 47.0000000  0  9G 7G22G31G23G 6G 3G26G16G 9
  23992207.578   126079896.119    23992210.801    98244094.065  
  23931168.047   125759134.140                                  
  24763297.477   130132010.712    24763301.898   101401585.698  
  20356051.938   106971775.144                                  
  24268827.242   127533549.318    24268834.512    99376822.272  
  22426691.602   117853052.838    22426697.949    91833574.895  
  21665317.492   113852012.241    21665324.316    88715882.478  
  20797640.820   109292342.684                                  
  21263012.914   111737887.781    21263018.207    87068506.579  
 18  1 15 22  8 48.0000000  0  9G 7G22G31G23G 6G 3G26G16G 9
  23991592.750   126076663.902    23991596.125    98241575.470  
  23931828.867   125762604.568                                  
  24763932.898   130135346.695    24763936.148   101404185.185  
  20355940.398   106971188.715                                  
  24269128.828   127535132.767    24269135.738    99378056.113  
  22427290.570   117856201.631    22427297.219    91836028.491  
  21665552.883   113853247.983    21665559.520    88716845.388  
  20797415.344   109291157.026                                  
  21262543.805   111735424.034    21262549.156    87066586.771  
 18  1 15 22  8 49.0000000  0 10G29G 7G22G31G23G 6G 3G26G16G 9
  24829707.844   130480992.1321   24829711.992   101673531.1561 
  23990977.055   126073432.400    23990981.047    98239057.421  
  23932488.430   125766075.710                                  
  24764568.305   130138683.305    24764570.828   101406785.138  
  20355829.352   106970603.300                                  
  24269429.945   127536717.239    24269437.410    99379290.757  
  22427889.438   117859351.348    22427896.164    91838482.818  
  21665788.203   113854484.923    21665794.699    88717809.234  
  20797190.016   109289972.672                                  
  21262075.211   111732961.146    21262080.633    87064667.641  
 18  1 15 22  8 50.0000000  0 10G29G 7G22G31G23G 6G 3G26G16G 9
  24829867.430   130481830.821    24829871.953   101674184.680  
  23990362.398   126070201.565    23990366.152    98236539.890  
  23933149.344   125769547.537                                  
  24765202.828   130142020.417    24765206.172   101409385.463  
  20355717.805   106970018.913                                  
  24269732.164   127538302.831    24269739.488    99380526.269  
  22428489.469   117862501.939    22428495.965    91840937.831  
  21666023.766   113855723.048    21666030.594    88718773.999  
  20796964.484   109288789.592                                  
  21261606.805   111730499.156    21261611.945    87062749.210  
 18  1 15 22  8 51.0000000  0 10G29G 7G22G31G23G 6G 3G26G16G 9
  24830026.445   130482670.701    24830030.906   101674839.137  
  23989747.711   126066971.472    23989751.574    98234022.944  
  23933810.289   125773020.041                                  
  24765838.406   130145358.139    24765841.664   101411986.271  
  20355607.055   106969435.568                                  
  24270034.164   127539889.467    24270041.609    99381762.593  
  22429089.016   117865653.467    22429095.531    91843393.574  
  21666259.828   113856962.378    21666266.398    88719739.714  
  20796740.000   109287607.838                                  
  21261138.469   111728038.099    21261143.805    87060831.502  
 18  1 15 22  8 52.0000000  0 10G29G 7G22G31G23G 6G 3G26G16G 9
  24830187.000   130483511.728    24830191.246   101675494.485  
  23989132.055   126063742.026    23989137.098    98231506.501  
  23934471.664   125776493.225                                  
  24766472.930   130148696.432    24766477.598   101414587.534  
  20355496.414   106968853.230                                  
  24270335.719   127541477.141    24270344.180    99382999.736  
  22429688.828   117868805.837    22429695.277    91845849.963  
  21666495.930   113858202.872    21666502.141    88720706.327  
  20796514.930   109286427.329                                  
  21260670.531   111725577.877    21260675.828    87058914.442  
 18  1 15 22  8 53.0000000  0 10G29G 7G22G31G23G 6G 3G26G16G 9
  24830347.727   130484353.861    24830351.777   101676150.688  
  23988518.617   126060513.255    23988522.496    98228990.561  
  23935132.805   125779967.002                                  
  24767108.641   130152035.161    24767113.172   101417189.148  
  20355385.445   106968271.831                                  
  24270636.180   127543065.813    24270646.121    99384237.678  
  22430288.781   117871959.065    22430295.309    91848307.020  
  21666731.891   113859444.476    21666738.688    88721673.811  
  20796290.617   109285248.056                                  
  21260202.281   111723118.481    21260207.664    87056998.046  
 18  1 15 22  8 54.0000000  0 10G29G 7G22G31G23G 6G 3G26G16G 9
  24830507.711   130485197.126    24830512.266   101676807.777  
  23987904.109   126057285.096    23987908.242    98226475.104  
  23935793.930   125783441.467                                  
  24767744.438   130155374.418    24767748.102   101419791.171  
  20355275.172   106967691.431                                  
  24270939.633   127544655.446    24270948.215    99385476.352  
  22430888.977   117875113.171    22430895.734    91850764.767  
  21666968.594   113860687.242    21666975.035    88722642.209  
  20796066.891   109284070.050                                  
  21259734.461   111720659.936    21259739.438    87055082.290  
 18  1 15 22  8 55.0000000  0 10G29G 7G22G31G23G 6G 3G26G16G 9
  24830668.664   130486041.595    24830673.180   101677465.815  
  23987289.875   126054057.636    23987294.371    98223960.186  
  23936454.977   125786916.575                                  
  24768380.477   130158714.226    24768383.711   101422393.630  
  20355164.953   106967112.043                                  
  24271243.813   127546246.127    24271250.508    99386715.842  
  22431488.734   117878268.115    22431495.977    91853223.163  
  21667205.039   113861931.172    21667211.449    88723611.512  
  20795842.727   109282893.317                                  
  21259266.609   111718202.246    21259271.801    87053167.205  
 18  1 15 22  8 56.0000000  0 10G29G 7G22G31G23G 6G 3G26G16G 9
  24830829.820   130486887.227    24830833.605   101678124.764  
  23986675.531   126050830.774    23986680.234    98221445.746  
  23937115.750   125790392.320                                  
  24769015.969   130162054.556    24769019.762   101424996.479  
  20355055.023   106966533.608                                  
  24271545.781   127547837.837    24271553.617    99387956.125  
  22432089.602   117881423.941    22432096.305    91855682.252  
  21667442.164   113863176.225    21667448.684    88724581.691  
  20795619.055   109281717.830                                  
  21258799.203   111715745.393    21258804.031    87051252.776  
 18  1 15 22  8 57.0000000  0 10G29G 7G22G31G23G 6G 3G26G16G 9
  24830990.828   130487733.910    24830995.137   101678784.525  
  23986061.531   126047604.674    23986066.199    98218931.911  
  23937778.477   125793868.845                                  
  24769651.750   130165395.525    24769655.398   101427599.819  
  20354945.023   106965956.263                                  
  24271849.727   127549430.652    24271857.004    99389197.284  
  22432690.336   117884580.719    22432696.789    91858142.079  
  21667679.258   113864422.529    21667686.102    88725552.841  
  20795395.609   109280543.698                                  
  21258331.852   111713289.491    21258336.996    87049339.091  
 18  1 15 22  8 58.0000000  0 10G29G 7G22G31G23G 6G 3G26G16G 9
  24831151.844   130488581.791    24831156.168   101679445.195  
  23985448.047   126044379.192    23985452.363    98216418.557  
  23938439.445   125797345.917                                  
  24770287.688   130168736.952    24770290.914   101430203.532  
  20354835.273   106965379.803                                  
  24272153.414   127551024.429    24272160.340    99390439.212  
  22433291.367   117887738.252    22433297.766    91860602.494  
  21667916.383   113865669.929    21667923.012    88726524.838  
  20795172.313   109279370.751                                  
  21257864.969   111710834.372    21257870.051    87047426.011  
 18  1 15 22  8 59.0000000  0 10G29G 7G22G31G23G 6G 3G26G16G 9
  24831313.234   130489430.780    24831317.426   101680106.751  
  23984833.969   126041154.315    23984839.484    98213905.680  
  23939102.203   125800823.634                                  
  24770923.047   130172078.868    24770926.574   101432807.617  
  20354725.672   106964804.327                                  
  24272456.070   127552619.169    24272463.555    99391681.876  
  22433892.219   117890896.649    22433899.164    91863063.584  
  21668153.953   113866918.417    21668160.754    88727497.679  
  20794949.039   109278199.019                                  
  21257397.758   111708380.058    21257403.051    87045513.556  
 18  1 15 22  9  0.0000000  0 10G29G 7G22G31G23G 6G 3G26G16G 9
  24831475.508   130490280.954    24831479.527   101680769.213  
  23984221.352   126037930.142    23984225.527    98211393.349  
  23939763.656   125804302.009                                  
  24771559.328   130175421.296    24771562.520   101435412.110  
  20354616.227   106964229.849                                  
  24272760.508   127554214.964    24272767.203    99392925.355  
  22434493.641   117894055.922    22434500.156    91865525.352  
  21668391.766   113868168.084    21668398.301    88728471.450  
  20794726.438   109277028.582                                  
  21256930.641   111705926.639    21256935.809    87043601.802  
 18  1 15 22  9  1.0000000  0 10G29G 7G22G31G23G 6G 3G26G16G 9
  24831637.430   130491132.257    24831641.645   101681432.580  
  23983607.305   126034706.689    23983611.887    98208881.568  
  23940425.406   125807781.063                                  
  24772194.883   130178764.367    24772198.902   101438017.091  
  20354507.320   106963656.415                                  
  24273063.422   127555811.836    24273071.066    99394169.667  
  22435095.000   117897216.095    22435101.664    91867987.814  
  21668630.023   113869418.955    21668636.867    88729446.160  
  20794504.141   109275859.435                                  
  21256464.188   111703474.098    21256469.598    87041690.732  
 18  1 15 22  9  2.0000000  0 10G29G 7G22G31G23G 6G 3G26G16G 9
  24831799.727   130491984.716    24831803.680   101682096.835  
  23982994.875   126031483.838    23982998.703    98206370.252  
  23941087.844   125811260.742                                  
  24772831.305   130182107.897    24772835.391   101440622.430  
  20354398.242   106963083.919                                  
  24273368.078   127557409.670    24273375.211    99395414.728  
  22435696.172   117900377.094    22435703.344    91870450.928  
  21668868.398   113870670.945    21668875.188    88730421.742  
  20794281.609   109274691.502                                  
  21255997.563   111701022.368    21256002.289    87039780.288  
 18  1 15 22  9  3.0000000  0 10G29G 7G22G31G23G 6G 3G26G16G 9
  24831961.844   130492838.239    24831966.488   101682761.919  
  23982381.242   126028261.594    23982385.613    98203859.405  
  23941750.414   125814741.040                                  
  24773467.414   130185451.923    24773471.238   101443228.162  
  20354289.555   106962512.384                                  
  24273671.922   127559008.494    24273679.086    99396660.563  
  22436297.898   117903538.938    22436304.660    91872914.705  
  21669106.664   113871924.029    21669113.324    88731398.173  
  20794059.805   109273524.799                                  
  21255530.930   111698571.459    21255536.000    87037870.492  
 18  1 15 22  9  4.0000000  0 10G29G 7G22G31G23G 6G 3G26G16G 9
  24832124.828   130493692.894    24832129.223   101683427.885  
  23981767.719   126025039.967    23981772.117    98201349.037  
  23942412.594   125818221.961                                  
  24774104.258   130188796.444    24774108.129   101445834.270  
  20354180.977   106961941.788                                  
  24273976.945   127560608.308    24273983.434    99397907.167  
  22436899.867   117906701.572    22436906.621    91875379.088  
  21669345.227   113873178.241    21669351.988    88732375.478  
  20793838.258   109272359.302                                  
  21255064.992   111696121.363    21255069.898    87035961.324  
 18  1 15 22  9  5.0000000  0 10G29G 7G22G31G23G 6G 3G26G16G 9
  24832287.711   130494548.637    24832291.664   101684094.702  
  23981155.352   126021819.005    23981159.422    98198839.196  
  23943075.828   125821703.503                                  
  24774740.836   130192141.487    24774744.340   101448440.796  
  20354072.852   106961372.153                                  
  24274281.305   127562209.092    24274288.160    99399154.530  
  22437501.859   117909865.075    22437508.691    91877844.159  
  21669584.305   113874433.569    21669591.117    88733353.653  
  20793616.938   109271195.050                                  
  21254598.398   111693672.101    21254604.023    87034052.811  
 18  1 15 22  9  6.0000000  0 10G29G 7G22G31G23G 6G 3G26G16G 9
  24832450.758   130495405.464    24832454.406   101684762.356  
  23980542.242   126018598.626    23980546.633    98196329.812  
  23943738.063   125825185.611                                  
  24775376.742   130195486.972    24775381.617   101451047.676  
  20353964.422   106960803.427                                  
  24274587.211   127563810.850    24274593.352    99400402.651  
  22438103.938   117913029.351    22438110.816    91880309.826  
  21669823.258   113875689.978    21669829.949    88734332.677  
  20793395.016   109270031.981                                  
  21254133.102   111691223.605    21254137.875    87032144.894  
 18  1 15 22  9  7.0000000  0 11G 2G29G 7G22G31G23G 6G 3G26G16G 9
  25110901.008   131958640.6211                                 
  24832614.031   130496263.450    24832618.477   101685430.921  
  23979929.695   126015378.896    23979934.262    98193820.932  
  23944400.938   125828668.364                                  
  24776013.406   130198832.996    24776018.527   101453654.975  
  20353856.203   106960235.685                                  
  24274891.477   127565413.632    24274898.660    99401651.568  
  22438706.297   117916194.473    22438712.859    91882776.156  
  21670062.563   113876947.542    21670069.523    88735312.596  
  20793174.359   109268870.129                                  
  21253667.047   111688775.981    21253671.914    87030237.653  
 18  1 15 22  9  8.0000000  0 11G 2G29G 7G22G31G23G 6G 3G26G16G 9
  25110859.211   131958425.021                                  
  24832777.289   130497122.545    24832781.754   101686100.346  
  23979317.055   126012159.804    23979321.020    98191312.554  
  23945063.453   125832151.780                                  
  24776650.805   130202179.497    24776655.031   101456262.640  
  20353748.602   106959668.934                                  
  24275196.219   127567017.409    24275203.402    99402901.262  
  22439309.031   117919360.447    22439315.648    91885243.151  
  21670302.344   113878206.229    21670308.465    88736293.393  
  20792953.555   109267709.557                                  
  21253201.320   111686329.155    21253206.336    87028331.040  
 18  1 15 22  9  9.0000000  0 11G 2G29G 7G22G31G23G 6G 3G26G16G 9
  25110817.969   131958210.474                                  
  24832940.672   130497982.771    24832945.082   101686770.655  
  23978704.094   126008941.348    23978709.004    98188804.667  
  23945726.930   125835635.807                                  
  24777287.914   130205526.549    24777291.770   101458870.726  
  20353640.914   106959103.158                                  
  24275501.563   127568622.185    24275508.699    99404151.723  
  22439911.227   117922527.278    22439918.387    91887710.813  
  21670541.891   113879466.057    21670548.434    88737275.069  
  20792732.898   109266550.222                                  
  21252735.953   111683883.193    21252741.016    87026425.096  
 18  1 15 22  9 10.0000000  0 11G 2G29G 7G22G31G23G 6G 3G26G16G 9
  25110777.758   131957997.002                                  
  24833105.469   130498844.108    24833108.891   101687441.821  
  23978092.242   126005723.525    23978096.230    98186297.273  
  23946389.828   125839120.449                                  
  24777924.125   130208874.118    24777928.281   101461479.220  
  20353533.344   106958538.321                                  
  24275807.383   127570227.950    24275814.227    99405402.967  
  22440514.164   117925694.948    22440521.133    91890179.127  
  21670782.063   113880727.003    21670788.766    88738257.626  
  20792512.086   109265392.108                                  
  21252270.594   111681438.051    21252275.855    87024519.786  
 18  1 15 22  9 11.0000000  0 11G 2G29G 7G22G31G23G 6G 3G26G16G 9
  25110738.227   131957784.528                                  
  24833269.445   130499706.546    24833272.996   101688113.845  
  23977480.508   126002506.355    23977483.828    98183790.390  
  23947053.023   125842605.728                                  
  24778562.109   130212222.134    24778565.043   101464088.057  
  20353425.977   106957974.460                                  
  24276112.625   127571834.681    24276120.246    99406654.961  
  22441117.039   117928863.448    22441123.852    91892648.087  
  21671021.852   113881989.059    21671029.012    88739241.045  
  20792291.688   109264235.226                                  
  21251805.586   111678993.714    21251810.621    87022615.110  
 18  1 15 22  9 12.0000000  0 11G 2G29G 7G22G31G23G 6G 3G26G16G 9
  25110698.203   131957573.242                                  
  24833432.758   130500570.170    24833436.820   101688786.799  
  23976868.836   125999289.836    23976872.402    98181284.005  
  23947716.016   125846091.677                                  
  24779199.359   130215570.724    24779202.430   101466697.345  
  20353318.922   106957411.599                                  
  24276418.602   127573442.473    24276426.258    99407907.789  
  22441720.227   117932032.829    22441726.867    91895117.728  
  21671262.172   113883252.293    21671268.648    88740225.383  
  20792072.102   109263079.608                                  
  21251340.094   111676550.263    21251345.586    87020711.126  
 18  1 15 22  9 13.0000000  0 11G 2G29G 7G22G31G23G 6G 3G26G16G 9
  25110658.039   131957362.861                                  
  24833597.414   130501434.892    24833602.016   101689460.605  
  23976256.680   125996073.970    23976260.246    98178778.138  
  23948379.391   125849578.273                                  
  24779836.461   130218919.816    24779840.137   101469307.036  
  20353211.898   106956849.712                                  
  24276725.539   127575051.262    24276732.844    99409161.392  
  22442323.492   117935203.027    22442330.055    91897588.011  
  21671502.969   113884516.657    21671509.504    88741210.598  
  20791852.141   109261925.235                                  
  21250875.906   111674107.646    21250880.902    87018807.790  
 18  1 15 22  9 14.0000000  0 11G 2G29G 7G22G31G23G 6G 3G26G16G 9
  25110617.594   131957153.685                                  
  24833762.266   130502300.855    24833766.621   101690135.380  
  23975644.586   125992858.825    23975648.184    98176272.837  
  23949043.664   125853065.561                                  
  24780474.172   130222269.512    24780477.668   101471917.193  
  20353105.180   106956288.884                                  
  24277030.695   127576661.143    24277039.160    99410415.850  
  22442926.922   117938374.158    22442933.656    91900059.021  
  21671743.586   113885782.244    21671750.527    88742196.774  
  20791632.867   109260772.182                                  
  21250411.336   111671665.952    21250416.207    87016905.177  
 18  1 15 22  9 15.0000000  0 11G 2G29G 7G22G31G23G 6G 3G26G16G 9
  25110578.047   131956945.554                                  
  24833927.039   130503167.922    24833931.949   101690811.017  
  23975033.523   125989644.366    23975036.488    98173768.072  
  23949706.664   125856553.518                                  
  24781111.227   130225619.745    24781115.340   101474527.769  
  20352998.273   106955729.032                                  
  24277337.938   127578272.037    24277345.301    99411671.088  
  22443530.430   117941546.165    22443537.188    91902530.717  
  21671984.797   113887048.978    21671991.613    88743183.838  
  20791413.711   109259620.379                                  
  21249947.156   111669225.094    21249952.219    87015003.205  
 18  1 15 22  9 16.0000000  0 11G 2G29G 7G22G31G23G 6G 3G26G16G 9
  25110538.914   131956738.545                                  
  24834091.688   130504036.198    24834097.156   101691487.594  
  23974422.016   125986430.589    23974425.297    98171263.826  
  23950370.469   125860042.164                                  
  24781748.703   130228970.521    24781752.766   101477138.771  
  20352892.336   106955170.216                                  
  24277644.813   127579883.968    24277651.898    99412927.133  
  22444134.813   117944719.081    22444141.391    91905003.117  
  21672226.063   113888316.883    21672232.926    88744171.817  
  20791195.031   109258469.873                                  
  21249482.313   111666785.138    21249487.617    87013101.941  
 18  1 15 22  9 17.0000000  0 11G 2G29G 7G22G31G23G 6G 3G26G16G 9
  25110499.781   131956532.681                                  
  24834258.242   130504905.703    24834262.363   101692165.128  
  23973809.672   125983217.562    23973813.840    98168760.160  
  23951034.719   125863531.544                                  
  24782386.555   130232321.918    24782390.508   101479750.255  
  20352786.344   106954612.472                                  
  24277951.844   127581497.039    24277959.012    99414184.073  
  22444738.453   117947892.912    22444745.215    91907476.236  
  21672467.586   113889586.031    21672474.598    88745160.766  
  20790976.367   109257320.700                                  
  21249018.164   111664346.119    21249023.199    87011201.407  
 18  1 15 22  9 18.0000000  0 11G 2G29G 7G22G31G23G 6G 3G26G16G 9
  25110459.875   131956327.933                                  
  24834423.898   130505776.381    24834427.906   101692843.578  
  23973197.867   125980005.227    23973202.965    98166257.032  
  23951699.484   125867021.621                                  
  24783023.766   130235673.920    24783028.012   101482362.206  
  20352680.352   106954055.771                                  
  24278258.031   127583111.172    24278266.469    99415441.831  
  22445342.711   117951067.701    22445349.285    91909950.097  
  21672709.336   113890856.402    21672715.625    88746150.667  
  20790757.914   109256172.861                                  
  21248554.219   111661908.004    21248559.496    87009301.581  
 18  1 15 22  9 19.0000000  0 11G 2G29G 7G22G31G23G 6G 3G26G16G 9
  25110421.133   131956124.271                                  
  24834589.484   130506648.193    24834593.992   101693522.911  
  23972587.516   125976793.595    23972591.535    98163754.462  
  23952363.094   125870512.379                                  
  24783662.398   130239026.446    24783666.023   101484974.562  
  20352574.695   106953500.076                                  
  24278566.367   127584726.317    24278573.512    99416700.388  
  22445947.148   117954243.348    22445953.520    91912424.625  
  21672951.125   113892127.920    21672958.148    88747141.456  
  20790539.945   109255026.290                                  
  21248090.406   111659470.772    21248095.945    87007402.439  
 18  1 15 22  9 20.0000000  0 11G 2G29G 7G22G31G23G 6G 3G26G16G 9
  25110382.852   131955921.739                                  
  24834755.258   130507521.234    24834759.457   101694203.214  
  23971976.328   125973582.665    23971980.254    98161252.439  
  23953027.570   125874003.834                                  
  24784300.938   130242379.585    24784304.125   101487587.401  
  20352469.094   106952945.417                                  
  24278874.188   127586342.571    24278880.934    99417959.809  
  22446551.484   117957419.867    22446558.086    91914899.838  
  21673193.492   113893400.659    21673200.699    88748133.204  
  20790321.953   109253881.036                                  
  21247626.781   111657034.444    21247632.410    87005504.006  
 18  1 15 22  9 21.0000000  0 11G 2G29G 7G22G31G23G 6G 3G26G16G 9
  25110344.281   131955720.431                                  
  24834922.844   130508395.501    24834926.793   101694884.471  
  23971365.227   125970372.513    23971369.762    98158751.024  
  23953692.164   125877496.054                                  
  24784938.648   130245733.343    24784943.027   101490200.721  
  20352363.734   106952391.868                                  
  24279181.961   127587959.961    24279188.410    99419220.112  
  22447155.695   117960597.433    22447162.855    91917375.864  
  21673436.203   113894674.665    21673443.090    88749125.938  
  20790104.375   109252737.140                                  
  21247163.836   111654599.084    21247168.605    87003606.325  
 18  1 15 22  9 22.0000000  0 11G 2G29G 7G22G31G23G 6G 3G26G16G 9
  25110306.859   131955520.209                                  
  24835089.477   130509271.016    24835093.262   101695566.701  
  23970754.508   125967163.116    23970759.184    98156250.197  
  23954356.711   125880989.017                                  
  24785577.609   130249087.729    24785580.844   101492814.526  
  20352258.320   106951839.406                                  
  24279489.344   127589578.417    24279496.043    99420481.251  
  22447760.836   117963775.924    22447767.613    91919852.610  
  21673678.500   113895949.908    21673685.152    88750119.633  
  20789886.742   109251594.612                                  
  21246700.188   111652164.648    21246705.207    87001709.360  
 18  1 15 22  9 23.0000000  0 11G 2G29G 7G22G31G23G 6G 3G26G16G 9
  25110268.000   131955321.125                                  
  24835256.320   130510147.724    24835259.734   101696249.855  
  23970144.391   125963954.424    23970148.711    98153749.918  
  23955021.805   125884482.703                                  
  24786215.727   130252442.703    24786219.699   101495428.795  
  20352153.617   106951287.967                                  
  24279797.500   127591197.962    24279804.965    99421743.234  
  22448365.742   117966955.304    22448372.098    91922330.044  
  21673921.539   113897226.329    21673928.094    88751114.250  
  20789669.258   109250453.383                                  
  21246236.703   111649731.137    21246241.977    86999813.118  
 18  1 15 22  9 24.0000000  0 11G 2G29G 7G22G31G23G 6G 3G26G16G 9
  25110231.094   131955123.208                                  
  24835422.906   130511025.665    24835427.246   101696933.961  
  23969533.914   125960746.484    23969537.633    98151250.224  
  23955686.414   125887977.087                                  
  24786854.359   130255798.269    24786858.453   101498043.524  
  20352048.781   106950737.614                                  
  24280106.320   127592818.640    24280113.359    99423006.096  
  22448970.984   117970135.645    22448977.598    91924808.235  
  21674164.977   113898504.016    21674171.234    88752109.846  
  20789452.609   109249313.493                                  
  21245773.797   111647298.570    21245779.047    86997917.612  
 18  1 15 22  9 25.0000000  0 11G 2G29G 7G22G31G23G 6G 3G26G16G 9
  25110193.281   131954926.438                                  
  24835590.523   130511904.836    24835594.391   101697619.027  
  23968922.828   125957539.310    23968928.402    98148751.119  
  23956351.953   125891472.227                                  
  24787492.992   130259154.463    24787497.352   101500658.751  
  20351944.242   106950188.342                                  
  24280414.211   127594440.376    24280422.148    99424269.795  
  22449576.297   117973316.935    22449582.984    91927287.159  
  21674407.898   113899782.923    21674414.563    88753106.398  
  20789235.828   109248174.961                                  
  21245311.375   111644866.921    21245316.199    86996022.823  
 18  1 15 22  9 26.0000000  0 11G 2G29G 7G22G31G23G 6G 3G26G16G 9
  25110156.531   131954730.805                                  
  24835758.016   130512785.188    24835761.785   101698305.007  
  23968312.500   125954332.808    23968318.332    98146252.542  
  23957017.016   125894968.059                                  
  24788131.719   130262511.208    24788135.785   101503274.393  
  20351839.625   106949640.082                                  
  24280722.758   127596063.205    24280730.922    99425534.330  
  22450181.688   117976499.132    22450188.824    91929766.791  
  21674651.391   113901063.018    21674658.520    88754103.872  
  20789019.547   109247037.724                                  
  21244848.727   111642436.188    21244853.875    86994128.749  
 18  1 15 22  9 27.0000000  0 11G 2G29G 7G22G31G23G 6G 3G26G16G 9
  25110119.227   131954536.225                                  
  24835925.609   130513666.692    24835929.742   101698991.896  
  23967702.242   125951127.018    23967707.691    98143754.524  
  23957682.719   125898464.558                                  
  24788770.602   130265868.545    24788774.676   101505890.493  
  20351735.977   106949092.874                                  
  24281032.523   127597687.104    24281039.520    99426799.705  
  22450787.352   117979682.237    22450794.602    91932247.131  
  21674895.242   113902344.312    21674902.375    88755102.283  
  20788803.000   109245901.791                                  
  21244386.734   111640006.326    21244391.438    86992235.352  
 18  1 15 22  9 28.0000000  0 11G 2G29G 7G22G31G23G 6G 3G26G16G 9
  25110082.984   131954342.839                                  
  24836092.914   130514549.497    24836097.578   101699679.799  
  23967091.977   125947921.966    23967097.172    98141257.087  
  23958348.234   125901961.824                                  
  24789409.578   130269226.544    24789413.570   101508507.113  
  20351632.008   106948546.738                                  
  24281341.258   127599312.101    24281348.988    99428065.930  
  22451393.445   117982866.287    22451400.684    91934728.211  
  21675139.414   113903626.826    21675146.523    88756101.646  
  20788587.266   109244767.207                                  
  21243924.250   111637577.434    21243929.449    86990342.707  
 18  1 15 22  9 29.0000000  0 11G 2G29G 7G22G31G23G 6G 3G26G16G 9
  25110046.086   131954150.559                                  
  24836261.898   130515433.432    24836265.684   101700368.579  
  23966482.992   125944717.625    23966487.395    98138760.214  
  23959013.695   125905459.803                                  
  24790048.789   130272585.093    24790052.414   101511124.150  
  20351528.273   106948001.661                                  
  24281650.977   127600938.142    24281658.055    99429332.965  
  22451999.852   117986051.239    22452006.590    91937209.993  
  21675383.695   113904910.568    21675390.270    88757101.971  
  20788371.500   109243633.927                                  
  21243462.414   111635149.420    21243467.727    86988450.749  
 18  1 15 22  9 30.0000000  0 11G 2G29G 7G22G31G23G 6G 3G26G16G 9
  25110009.695   131953959.409                                  
  24836429.891   130516318.620    24836434.301   101701058.337  
  23965873.609   125941514.004    23965877.734    98136263.891  
  23959679.914   125908958.451                                  
  24790688.445   130275944.185    24790691.430   101513741.617  
  20351425.133   106947457.597                                  
  24281960.039   127602565.265    24281968.051    99430600.849  
  22452605.969   117989237.100    22452612.648    91939692.479  
  21675628.063   113906195.498    21675635.254    88758103.214  
  20788156.242   109242501.943                                  
  21243000.656   111632722.330    21243005.277    86986559.506  
 18  1 15 22  9 31.0000000  0 11G 2G29G 7G22G31G23G 6G 3G26G16G 9
  25109973.500   131953769.402                                  
  24836598.359   130517204.998    24836602.887   101701749.023  
  23965263.625   125938311.145    23965268.828    98133768.163  
  23960345.250   125912457.853                                  
  24791327.156   130279303.920    24791330.379   101516359.588  
  20351321.602   106946914.628                                  
  24282271.000   127604193.496    24282277.746    99431869.598  
  22453212.625   117992423.928    22453218.813    91942175.719  
  21675873.094   113907481.678    21675879.996    88759105.431  
  20787941.258   109241371.338                                  
  21242538.727   111630296.179    21242543.871    86984669.000  
 18  1 15 22  9 32.0000000  0 11G 2G29G 7G22G31G23G 6G 3G26G16G 9
  25109937.602   131953580.602                                  
  24836767.508   130518092.633    24836771.191   101702440.690  
  23964654.539   125935109.059    23964659.605    98131273.033  
  23961010.820   125915958.006                                  
  24791967.227   130282664.314    24791970.430   101518978.070  
  20351218.531   106946372.761                                  
  24282580.594   127605822.878    24282587.699    99433139.255  
  22453819.125   117995611.715    22453825.770    91944659.709  
  21676117.805   113908769.110    21676124.977    88760108.625  
  20787726.227   109240242.088                                  
  21242076.906   111627871.004    21242082.059    86982779.255  
 18  1 15 22  9 33.0000000  0 11G 2G29G 7G22G31G23G 6G 3G26G16G 9
  25109901.781   131953392.823                                  
  24836936.047   130518981.431    24836940.699   101703133.260  
  23964045.500   125931907.619    23964050.160    98128778.405  
  23961677.867   125919458.822                                  
  24792605.539   130286025.234    24792610.238   101521596.971  
  20351115.492   106945831.885                                  
  24282890.711   127607453.248    24282898.508    99434409.681  
  22454426.023   117998800.363    22454432.582    91947144.362  
  21676363.219   113910057.696    21676370.066    88761112.719  
  20787511.883   109239114.105                                  
  21241616.242   111625446.672    21241620.867    86980890.172  
 18  1 15 22  9 34.0000000  0 11G 2G29G 7G22G31G23G 6G 3G26G16G 9
  25109866.289   131953206.191                                  
  24837105.359   130519871.438    24837110.156   101703826.773  
  23963436.383   125928706.923    23963440.887    98126284.352  
  23962343.461   125922960.348                                  
  24793245.633   130289386.728    24793250.180   101524216.317  
  20351012.750   106945292.046                                  
  24283201.609   127609084.694    24283208.738    99435680.940  
  22455032.648   118001989.934    22455039.242    91949629.741  
  21676608.727   113911347.478    21676615.598    88762117.740  
  20787297.375   109237987.427                                  
  21241154.516   111623023.270    21241159.660    86979001.805  
 18  1 15 22  9 35.0000000  0 11G 2G29G 7G22G31G23G 6G 3G26G16G 9
  25109830.977   131953020.714                                  
  24837275.234   130520762.611    24837279.688   101704521.183  
  23962827.758   125925506.922    23962832.117    98123790.849  
  23963010.297   125926462.575                                  
  24793885.219   130292748.815    24793889.086   101526836.126  
  20350909.969   106944753.248                                  
  24283511.336   127610717.230    24283519.199    99436953.045  
  22455639.094   118005180.400    22455646.547    91952115.813  
  21676854.469   113912638.485    21676861.328    88763123.720  
  20787083.031   109236862.081                                  
  21240693.656   111620600.762    21240698.797    86977114.138  
 18  1 15 22  9 36.0000000  0 11G 2G29G 7G22G31G23G 6G 3G26G16G 9
  25109795.844   131952836.262                                  
  24837444.828   130521654.907    24837449.293   101705216.479  
  23962218.914   125922307.577    23962222.949    98121297.849  
  23963676.258   125929965.449                                  
  24794525.320   130296111.432    24794529.594   101529456.350  
  20350808.000   106944215.428                                  
  24283822.531   127612350.748    24283830.398    99438225.914  
  22456246.953   118008371.761    22456253.754    91954602.587  
  21677100.094   113913930.598    21677106.945    88764130.564  
  20786869.156   109235737.965                                  
  21240233.078   111618179.098    21240238.180    86975227.127  
 18  1 15 22  9 37.0000000  0 11G 2G29G 7G22G31G23G 6G 3G26G16G 9
  25109760.578   131952652.909                                  
  24837615.250   130522548.364    24837619.648   101705912.679  
  23961610.578   125919108.888    23961614.227    98118805.363  
